yaw, pitch, roll, rawX (accel), rawY, rawZ, tmp36, Time (HH:MM:SS), Date (MM/DD/YY),GPS Fix, Fix Quality, Latitude, Longitude, knots, altitude, # of satellite fixes
123.95,-2.86,0.00,118.11,-0.18,-2.64,0.00,15:44:28.984,0/0/0,0,0,, , , ,
119.15,-0.77,-3.88,-2.37,-20.68,231.42,32.01,15:44:28.984,8/28/14,0,0,, , , ,
120.63,-3.12,-3.98,11.83,-19.69,224.26,32.01,15:44:29.171,8/28/14,0,0,, , , ,
121.67,-2.72,-2.56,-4.26,-10.83,224.26,32.59,15:44:29.390,8/28/14,0,0,, , , ,
122.81,-3.95,-2.54,12.78,-6.89,251.90,32.01,15:44:29.390,8/28/14,0,0,, , , ,
123.64,-2.86,-4.86,0.47,-26.58,227.33,32.01,15:44:29.578,8/28/14,0,0,, , , ,
124.38,-2.63,-3.88,8.04,-13.78,239.62,34.33,15:44:29.578,8/28/14,0,0,, , , ,
124.73,-1.54,-2.36,-4.26,-5.91,234.50,-55.00,15:44:29.796,8/28/14,0,0,, , , ,
125.41,-3.66,-3.34,9.94,-12.80,232.45,-55.00,15:44:29.984,8/28/14,0,0,, , , ,
125.92,-3.21,-4.17,-0.47,-19.69,231.42,-55.00,15:44:29.984,8/28/14,0,0,, , , ,
126.48,-3.65,-3.45,3.31,-7.88,260.10,-55.00,15:44:30.187,8/28/14,0,0,, , , ,
126.77,-4.03,-4.14,8.99,-22.65,250.88,-55.00,15:44:30.187,8/28/14,0,0,, , , ,
126.70,-3.18,-3.85,6.15,-17.72,250.88,32.59,15:44:30.375,8/28/14,0,0,, , , ,
126.33,-2.07,-2.30,3.31,-6.89,247.81,32.59,15:44:30.593,8/28/14,0,0,, , , ,
126.08,-2.12,-3.42,7.10,-19.69,250.88,32.59,15:44:30.593,8/28/14,0,0,, , , ,
125.87,-1.75,-3.64,0.47,-18.71,238.59,33.75,15:44:30.781,8/28/14,0,0,, , , ,
125.69,-1.28,-2.42,-0.47,-12.80,262.14,32.59,15:44:30.984,8/28/14,0,0,, , , ,
125.78,-2.03,-2.47,2.37,-15.75,276.48,32.59,15:44:30.984,8/28/14,0,0,, , , ,
126.31,-3.20,-3.99,4.26,-14.77,227.33,32.59,15:44:31.171,8/28/14,0,0,, , , ,
126.88,-3.52,-4.08,2.37,-11.82,230.40,34.33,15:44:31.171,8/28/14,0,0,, , , ,
127.37,-3.54,-4.05,-0.47,-6.89,212.99,32.59,15:44:31.390,8/28/14,0,0,, , , ,
127.92,-4.38,-5.37,9.94,-19.69,231.42,32.59,15:44:31.578,8/28/14,0,0,, , , ,
127.96,-2.67,-5.65,-0.47,-19.69,250.88,32.59,15:44:31.578,8/28/14,0,0,, , , ,
128.00,-2.26,-4.90,8.99,-12.80,254.98,32.59,15:44:31.796,8/28/14,0,0,, , , ,
127.81,-1.12,-5.28,-2.37,-20.68,235.52,34.33,15:44:31.984,8/28/14,0,0,, , , ,
128.05,-1.82,-5.21,5.21,-12.80,241.66,32.01,15:44:31.984,8/28/14,0,0,, , , ,
128.32,-2.10,-5.82,-1.42,-19.69,230.40,32.01,15:44:32.187,8/28/14,0,0,, , , ,
129.07,-3.66,-6.22,10.88,-21.66,251.90,32.01,15:44:32.187,8/28/14,0,0,, , , ,
129.66,-3.48,-5.42,-0.47,-20.68,267.26,34.33,15:44:32.375,8/28/14,0,0,, , , ,
130.68,-4.53,-4.67,12.78,-10.83,272.38,31.43,15:44:32.593,8/28/14,0,0,, , , ,
131.43,-4.04,-5.40,-2.37,-21.66,239.62,31.43,15:44:32.593,8/28/14,0,0,, , , ,
132.39,-4.89,-5.45,16.56,-18.71,235.52,31.43,15:44:32.781,8/28/14,0,0,, , , ,
132.65,-2.83,-4.48,-2.37,-6.89,226.30,31.43,15:44:32.781,8/28/14,0,0,, , , ,
133.36,-3.03,-5.01,14.67,-9.85,270.34,34.33,15:44:32.984,8/28/14,0,0,, , , ,
133.90,-2.23,-7.34,2.37,-30.52,248.83,30.85,15:44:33.171,8/28/14,0,0,, , , ,
134.61,-2.48,-6.58,12.78,-18.71,244.74,30.85,15:44:33.171,8/28/14,0,0,, , , ,
134.87,-0.76,-5.13,-2.37,-10.83,217.09,31.43,15:44:33.390,8/28/14,0,0,, , , ,
135.75,-1.64,-6.07,15.62,-18.71,249.86,32.01,15:44:33.578,8/28/14,0,0,, , , ,
136.48,-1.54,-6.93,7.10,-30.52,253.95,30.85,15:44:33.578,8/28/14,0,0,, , , ,
137.29,-1.12,-5.50,9.94,-15.75,262.14,30.85,15:44:33.796,8/28/14,0,0,, , , ,
138.00,-0.81,-5.34,6.15,-21.66,227.33,30.85,15:44:33.796,8/28/14,0,0,, , , ,
138.66,-0.23,-4.77,7.10,-20.68,210.94,33.75,15:44:33.984,8/28/14,0,0,, , , ,
139.30,0.82,-3.54,1.42,-8.86,241.66,30.85,15:44:34.187,8/28/14,0,0,, , , ,
140.43,-0.28,-5.03,8.04,-21.66,217.09,30.85,15:44:34.187,8/28/14,0,0,, , , ,
141.50,-0.13,-6.14,11.83,-32.49,238.59,30.27,15:44:34.375,8/28/14,0,0,, , , ,
142.34,1.08,-3.77,-1.42,-10.83,242.69,34.33,15:44:34.375,8/28/14,0,0,, , , ,
143.65,0.43,-3.26,7.10,-17.72,243.71,30.85,15:44:34.593,8/28/14,0,0,, , , ,
145.10,-0.19,-4.43,3.31,-30.52,224.26,30.27,15:44:34.781,8/28/14,0,0,, , , ,
146.68,-1.17,-2.99,8.99,-12.80,224.26,30.27,15:44:34.781,8/28/14,0,0,, , , ,
148.06,-0.48,-2.71,-3.31,-17.72,238.59,30.85,15:44:34.984,8/28/14,0,0,, , , ,
149.82,-1.55,-4.08,10.88,-21.66,226.30,33.75,15:44:35.171,8/28/14,0,0,, , , ,
151.46,-1.09,-3.74,2.37,-16.74,222.21,30.27,15:44:35.171,8/28/14,0,0,, , , ,
153.21,-0.95,-2.98,5.21,-13.78,235.52,30.27,15:44:35.390,8/28/14,0,0,, , , ,
155.10,-0.93,-3.33,-0.47,-19.69,209.92,30.27,15:44:35.390,8/28/14,0,0,, , , ,
157.25,-1.87,-3.18,8.04,-12.80,252.93,31.43,15:44:35.578,8/28/14,0,0,, , , ,
159.39,-1.65,-3.66,-0.47,-18.71,230.40,30.27,15:44:35.796,8/28/14,0,0,, , , ,
161.62,-2.28,-3.93,11.83,-18.71,249.86,30.27,15:44:35.796,8/28/14,0,0,, , , ,
163.48,-1.43,-3.27,-1.42,-14.77,243.71,29.69,15:44:38.234,8/28/14,0,0,, , , ,
165.44,-3.01,-3.44,10.88,-15.75,249.86,34.33,15:44:38.234,8/28/14,0,0,, , , ,
166.80,-2.88,-3.95,1.42,-23.63,231.42,30.27,15:44:38.453,8/28/14,0,0,, , , ,
167.51,-3.18,-2.06,8.04,-3.94,253.95,30.27,15:44:38.656,8/28/14,0,0,, , , ,
167.53,-2.32,-2.58,0.47,-12.80,235.52,30.27,15:44:38.656,8/28/14,0,0,, , , ,
167.34,-3.17,-3.81,10.88,-21.66,230.40,34.33,15:44:38.859,8/28/14,0,0,, , , ,
166.18,-1.65,-2.27,1.42,-7.88,241.66,30.27,15:44:39.46,8/28/14,0,0,, , , ,
164.69,-0.99,-1.95,2.37,-4.92,233.47,30.27,15:44:39.46,8/28/14,0,0,, , , ,
163.27,-2.59,-4.54,9.94,-23.63,250.88,25.63,15:44:39.265,8/28/14,0,0,, , , ,
161.55,-2.89,-4.46,0.47,-13.78,253.95,32.59,15:44:39.265,8/28/14,0,0,, , , ,
159.44,-3.34,-2.79,8.99,-2.95,250.88,30.27,15:44:39.437,8/28/14,0,0,, , , ,
157.21,-4.36,-4.32,8.99,-16.74,234.50,29.69,15:44:39.625,8/28/14,0,0,, , , ,
154.81,-4.60,-4.79,10.88,-13.78,235.52,29.69,15:44:39.625,8/28/14,0,0,, , , ,
152.01,-3.44,-4.26,3.31,-7.88,253.95,29.69,15:44:39.843,8/28/14,0,0,, , , ,
149.27,-3.66,-5.07,15.62,-18.71,261.12,34.33,15:44:39.843,8/28/14,0,0,, , , ,
146.19,-2.83,-5.28,3.31,-20.68,250.88,29.69,15:44:40.31,8/28/14,0,0,, , , ,
143.11,-2.93,-4.20,9.94,-7.88,244.74,29.69,15:44:40.234,8/28/14,0,0,, , , ,
139.74,-2.50,-4.92,4.26,-15.75,231.42,29.69,15:44:40.234,8/28/14,0,0,, , , ,
136.36,-2.19,-5.61,6.15,-18.71,242.69,31.43,15:44:40.421,8/28/14,0,0,, , , ,
132.78,-2.38,-4.80,7.10,-13.78,240.64,29.69,15:44:40.640,8/28/14,0,0,, , , ,
129.21,-2.31,-4.78,8.04,-12.80,250.88,29.69,15:44:40.640,8/28/14,0,0,, , , ,
125.60,-2.78,-4.73,9.94,-16.74,264.19,30.27,15:44:40.828,8/28/14,0,0,, , , ,
121.92,-2.62,-4.75,8.04,-19.69,263.17,30.27,15:44:40.828,8/28/14,0,0,, , , ,
118.13,-2.65,-3.98,6.15,-7.88,254.98,29.69,15:44:41.46,8/28/14,0,0,, , , ,
114.71,-2.64,-5.58,9.94,-26.58,251.90,29.69,15:44:41.234,8/28/14,0,0,, , , ,
111.23,-2.93,-5.29,9.94,-20.68,237.57,29.69,15:44:41.234,8/28/14,0,0,, , , ,
108.10,-1.53,-3.97,1.42,-7.88,260.10,30.85,15:44:41.437,8/28/14,0,0,, , , ,
105.84,-2.56,-5.19,9.94,-18.71,223.23,29.69,15:44:41.625,8/28/14,0,0,, , , ,
104.12,-2.60,-6.10,6.15,-21.66,223.23,29.69,15:44:41.625,8/28/14,0,0,, , , ,
102.53,-2.42,-3.67,8.04,-12.80,240.64,29.69,15:44:41.843,8/28/14,0,0,, , , ,
101.35,-1.85,-3.04,-1.42,-17.72,237.57,30.85,15:44:41.843,8/28/14,0,0,, , , ,
100.67,-3.52,-3.49,11.83,-22.65,234.50,29.69,15:44:42.31,8/28/14,0,0,, , , ,
100.04,-2.89,-3.61,8.04,-17.72,245.76,25.63,15:44:42.234,8/28/14,0,0,, , , ,
99.53,-2.17,-2.89,10.88,-11.82,234.50,29.69,15:44:42.234,8/28/14,0,0,, , , ,
99.16,-0.65,-2.91,7.10,-19.69,231.42,34.33,15:44:42.421,8/28/14,0,0,, , , ,
98.99,0.30,-2.75,5.21,-15.75,228.35,29.69,15:44:42.421,8/28/14,0,0,, , , ,
99.23,0.64,-2.84,3.31,-7.88,243.71,29.69,15:44:42.640,8/28/14,0,0,, , , ,
100.08,-1.04,-5.09,14.67,-21.66,268.29,29.69,15:44:42.812,8/28/14,0,0,, , , ,
100.89,-0.71,-7.26,10.88,-34.46,240.64,33.75,15:44:42.812,8/28/14,0,0,, , , ,
101.34,0.72,-5.40,0.47,-14.77,262.14,29.69,15:44:43.31,8/28/14,0,0,, , , ,
102.53,0.48,-5.47,4.26,-21.66,248.83,29.69,15:44:43.218,8/28/14,0,0,, , , ,
104.09,-1.46,-6.01,8.04,-29.54,209.92,29.69,15:44:43.218,8/28/14,0,0,, , , ,
105.39,-1.16,-3.39,5.21,-18.71,215.04,29.69,15:44:43.421,8/28/14,0,0,, , , ,
106.64,-0.80,-1.24,1.42,-8.86,219.14,30.27,15:44:43.421,8/28/14,0,0,, , , ,
108.24,-1.24,-2.50,3.31,-21.66,215.04,29.69,15:44:43.625,8/28/14,0,0,, , , ,
110.04,-1.71,-3.41,9.94,-19.69,243.71,29.69,15:44:43.843,8/28/14,0,0,, , , ,
111.98,-1.25,-3.61,0.47,-14.77,234.50,34.33,15:44:43.843,8/28/14,0,0,, , , ,
114.23,-2.09,-5.15,9.94,-22.65,236.54,29.69,15:44:44.31,8/28/14,0,0,, , , ,
116.63,-2.23,-6.24,2.37,-26.58,219.14,29.69,15:44:44.234,8/28/14,0,0,, , , ,
118.86,-2.73,-4.64,10.88,-18.71,242.69,29.69,15:44:44.234,8/28/14,0,0,, , , ,
120.87,-1.62,-3.79,-3.31,-16.74,252.93,34.33,15:44:44.421,8/28/14,0,0,, , , ,
123.07,-3.22,-3.76,12.78,-23.63,260.10,29.69,15:44:44.421,8/28/14,0,0,, , , ,
125.07,-2.98,-3.40,6.15,-27.57,265.22,29.69,15:44:44.625,8/28/14,0,0,, , , ,
126.84,-3.05,-1.42,4.26,-10.83,249.86,29.69,15:44:44.812,8/28/14,0,0,, , , ,
128.53,-2.93,-1.98,3.31,-19.69,229.38,34.33,15:44:44.812,8/28/14,0,0,, , , ,
130.16,-3.29,-2.44,9.94,-14.77,228.35,29.69,15:44:45.0,8/28/14,0,0,, , , ,
131.54,-1.50,-2.67,0.47,-7.88,242.69,29.69,15:44:45.0,8/28/14,0,0,, , , ,
133.17,-2.08,-5.04,11.83,-20.68,271.36,29.69,15:44:45.203,8/28/14,0,0,, , , ,
134.59,-1.23,-6.78,7.10,-32.49,263.17,34.33,15:44:45.234,8/28/14,0,0,, , , ,
135.66,-0.06,-4.19,5.21,-12.80,253.95,29.69,15:44:45.234,8/28/14,0,0,, , , ,
136.94,-0.03,-3.41,6.15,-21.66,269.31,29.69,15:44:45.281,8/28/14,0,0,, , , ,
138.47,-0.91,-3.33,5.21,-16.74,231.42,25.63,15:44:45.390,8/28/14,0,0,, , , ,
140.22,-0.93,-2.66,2.37,-15.75,222.21,29.69,15:44:45.390,8/28/14,0,0,, , , ,
141.92,-2.11,-2.08,7.10,-11.82,231.42,30.27,15:44:45.500,8/28/14,0,0,, , , ,
143.32,-1.84,-2.14,0.47,-13.78,218.11,29.69,15:44:45.500,8/28/14,0,0,, , , ,
144.35,-2.24,-1.86,7.10,-7.88,231.42,29.69,15:44:45.687,8/28/14,0,0,, , , ,
144.94,-1.93,-1.95,0.47,-12.80,232.45,34.33,15:44:45.906,8/28/14,0,0,, , , ,
145.09,-2.88,-1.76,4.26,-6.89,215.04,29.69,15:44:45.906,8/28/14,0,0,, , , ,
144.85,-3.64,-2.23,-0.47,-10.83,226.30,29.69,15:44:46.93,8/28/14,0,0,, , , ,
144.27,-4.77,-3.23,10.88,-9.85,242.69,29.69,15:44:46.296,8/28/14,0,0,, , , ,
143.20,-3.91,-4.14,-0.47,-15.75,245.76,29.11,15:44:46.296,8/28/14,0,0,, , , ,
141.69,-4.42,-4.16,18.45,-15.75,265.22,29.69,15:44:46.484,8/28/14,0,0,, , , ,
139.38,-2.48,-3.73,-1.42,-15.75,245.76,29.69,15:44:46.484,8/28/14,0,0,, , , ,
136.89,-3.27,-2.61,8.99,-5.91,229.38,29.69,15:44:46.703,8/28/14,0,0,, , , ,
134.14,-3.24,-2.79,4.26,-7.88,229.38,29.69,15:44:46.890,8/28/14,0,0,, , , ,
131.49,-3.87,-3.43,8.99,-6.89,248.83,33.75,15:44:46.890,8/28/14,0,0,, , , ,
128.89,-3.89,-4.74,9.94,-15.75,257.02,29.69,15:44:47.109,8/28/14,0,0,, , , ,
126.12,-3.32,-5.14,10.88,-7.88,261.12,29.69,15:44:47.296,8/28/14,0,0,, , , ,
123.18,-1.99,-5.71,3.31,-9.85,250.88,29.69,15:44:47.296,8/28/14,0,0,, , , ,
120.32,-2.48,-6.16,15.62,-15.75,248.83,32.01,15:44:47.500,8/28/14,0,0,, , , ,
117.09,-0.47,-5.85,-1.42,-12.80,264.19,29.69,15:44:47.500,8/28/14,0,0,, , , ,
114.11,-1.07,-5.60,9.94,-9.85,265.22,29.69,15:44:47.687,8/28/14,0,0,, , , ,
111.14,-1.23,-6.64,2.37,-17.72,259.07,29.69,15:44:47.906,8/28/14,0,0,, , , ,
108.42,-2.42,-6.47,8.99,-14.77,251.90,34.91,15:44:47.906,8/28/14,0,0,, , , ,
105.60,-2.66,-5.78,6.15,-16.74,259.07,29.69,15:44:48.93,8/28/14,0,0,, , , ,
102.79,-2.88,-5.09,8.99,-18.71,240.64,29.69,15:44:48.93,8/28/14,0,0,, , , ,
99.86,-1.82,-3.56,3.31,-10.83,214.02,29.69,15:44:48.296,8/28/14,0,0,, , , ,
97.24,-0.78,-2.69,5.21,-8.86,250.88,33.75,15:44:48.484,8/28/14,0,0,, , , ,
95.17,-0.66,-3.69,8.99,-21.66,252.93,29.69,15:44:48.484,8/28/14,0,0,, , , ,
93.49,-0.01,-3.54,4.26,-19.69,239.62,29.69,15:44:48.703,8/28/14,0,0,, , , ,
92.70,-0.36,-3.06,3.31,-13.78,227.33,29.69,15:44:48.890,8/28/14,0,0,, , , ,
92.85,-1.31,-3.57,8.04,-21.66,250.88,26.21,15:44:48.890,8/28/14,0,0,, , , ,
93.49,-1.34,-3.19,4.26,-17.72,232.45,30.27,15:44:49.109,8/28/14,0,0,, , , ,
94.62,-0.71,-2.53,1.42,-12.80,248.83,29.69,15:44:49.109,8/28/14,0,0,, , , ,
96.41,-1.28,-3.52,8.04,-19.69,232.45,29.69,15:44:49.296,8/28/14,0,0,, , , ,
98.32,-0.61,-4.17,6.15,-25.60,226.30,34.33,15:44:49.500,8/28/14,0,0,, , , ,
100.43,-0.07,-2.76,3.31,-10.83,253.95,29.69,15:44:49.500,8/28/14,0,0,, , , ,
103.17,-0.33,-3.04,5.21,-17.72,232.45,29.69,15:44:49.687,8/28/14,0,0,, , , ,
106.21,-1.16,-4.08,9.94,-26.58,239.62,29.69,15:44:49.687,8/28/14,0,0,, , , ,
109.22,-0.63,-2.60,2.37,-13.78,234.50,34.91,15:44:49.906,8/28/14,0,0,, , , ,
112.52,-1.05,-2.25,5.21,-15.75,241.66,30.27,15:44:50.93,8/28/14,0,0,, , , ,
116.00,-1.37,-3.34,3.31,-21.66,239.62,29.69,15:44:50.93,8/28/14,0,0,, , , ,
119.49,-1.86,-3.06,10.88,-16.74,250.88,29.69,15:44:50.296,8/28/14,0,0,, , , ,
122.91,-1.16,-3.03,-1.42,-15.75,229.38,29.69,15:44:50.484,8/28/14,0,0,, , , ,
126.63,-2.14,-3.71,6.15,-15.75,231.42,30.27,15:44:50.484,8/28/14,0,0,, , , ,
130.34,-2.40,-4.67,0.47,-20.68,235.52,29.69,15:44:50.703,8/28/14,0,0,, , , ,
134.07,-2.94,-4.74,8.04,-18.71,233.47,29.69,15:44:50.703,8/28/14,0,0,, , , ,
137.41,-1.83,-3.91,-1.42,-8.86,230.40,29.69,15:44:50.890,8/28/14,0,0,, , , ,
140.88,-2.14,-4.44,7.10,-15.75,256.00,30.85,15:44:51.109,8/28/14,0,0,, , , ,
144.28,-2.00,-5.62,5.21,-30.52,234.50,29.69,15:44:51.109,8/28/14,0,0,, , , ,
147.32,-1.72,-3.65,4.26,-12.80,233.47,29.69,15:44:51.296,8/28/14,0,0,, , , ,
150.08,-1.24,-2.57,-2.37,-9.85,236.54,29.69,15:44:51.296,8/28/14,0,0,, , , ,
153.06,-2.75,-4.37,10.88,-21.66,240.64,34.91,15:44:51.500,8/28/14,0,0,, , , ,
155.53,-2.65,-4.40,2.37,-25.60,230.40,29.69,15:44:51.687,8/28/14,0,0,, , , ,
157.18,-2.73,-1.52,8.99,-5.91,258.05,29.69,15:44:51.687,8/28/14,0,0,, , , ,
158.10,-1.32,-1.83,-0.47,-4.92,257.02,29.69,15:44:51.906,8/28/14,0,0,, , , ,
159.19,-2.62,-5.18,13.72,-26.58,235.52,34.33,15:44:52.93,8/28/14,0,0,, , , ,
159.55,-2.71,-4.92,9.94,-20.68,249.86,29.69,15:44:52.93,8/28/14,0,0,, , , ,
159.20,-1.70,-2.21,2.37,0.98,257.02,29.69,15:44:52.296,8/28/14,0,0,, , , ,
158.73,-2.70,-4.48,7.10,-16.74,229.38,29.69,15:44:52.296,8/28/14,0,0,, , , ,
157.85,-2.49,-5.92,11.83,-20.68,239.62,33.17,15:44:52.484,8/28/14,0,0,, , , ,
156.29,-0.62,-4.42,0.47,-4.92,243.71,31.43,15:44:52.703,8/28/14,0,0,, , , ,
154.91,-0.98,-6.06,8.99,-12.80,240.64,29.69,15:44:52.703,8/28/14,0,0,, , , ,
153.39,-1.66,-8.27,9.94,-32.49,244.74,29.69,15:44:52.890,8/28/14,0,0,, , , ,
151.32,-1.30,-5.94,6.15,-5.91,256.00,32.59,15:44:53.109,8/28/14,0,0,, , , ,
149.21,-1.16,-5.41,3.31,-8.86,261.12,30.27,15:44:53.109,8/28/14,0,0,, , , ,
147.52,-2.79,-8.20,15.62,-28.55,245.76,29.69,15:44:53.296,8/28/14,0,0,, , , ,
145.44,-2.33,-7.56,5.21,-19.69,250.88,29.69,15:44:53.296,8/28/14,0,0,, , , ,
143.48,-2.14,-5.74,8.04,-8.86,246.78,29.69,15:44:53.500,8/28/14,0,0,, , , ,
141.86,-1.62,-6.67,7.10,-18.71,232.45,30.85,15:44:53.687,8/28/14,0,0,, , , ,
140.25,-1.45,-6.80,11.83,-21.66,247.81,29.69,15:44:53.687,8/28/14,0,0,, , , ,
138.48,-0.20,-5.46,0.47,-18.71,265.22,29.69,15:44:53.906,8/28/14,0,0,, , , ,
137.34,-0.55,-5.07,8.99,-18.71,233.47,29.69,15:44:53.906,8/28/14,0,0,, , , ,
136.27,0.01,-5.24,3.31,-21.66,216.06,34.33,15:44:54.93,8/28/14,0,0,, , , ,
135.42,0.83,-4.13,2.37,-17.72,202.75,29.69,15:44:54.296,8/28/14,0,0,, , , ,
134.81,0.87,-2.90,6.15,-14.77,238.59,29.69,15:44:54.296,8/28/14,0,0,, , , ,
134.55,0.33,-3.76,4.26,-24.62,251.90,29.69,15:44:54.484,8/28/14,0,0,, , , ,
134.67,-0.87,-3.65,9.94,-23.63,245.76,29.69,15:44:54.703,8/28/14,0,0,, , , ,
134.85,-0.56,-2.73,4.26,-17.72,232.45,30.27,15:44:54.703,8/28/14,0,0,, , , ,
135.12,-0.24,-1.76,8.04,-17.72,233.47,29.69,15:44:54.890,8/28/14,0,0,, , , ,
135.52,0.30,-1.27,2.37,-17.72,259.07,29.69,15:44:54.890,8/28/14,0,0,, , , ,
136.33,-1.47,-1.57,11.83,-17.72,246.78,29.69,15:44:55.109,8/28/14,0,0,, , , ,
137.29,-1.54,-1.82,9.94,-21.66,248.83,34.91,15:44:55.296,8/28/14,0,0,, , , ,
138.15,-0.53,-0.95,8.99,-14.77,235.52,29.69,15:44:55.296,8/28/14,0,0,, , , ,
139.05,0.62,-0.77,2.37,-6.89,249.86,29.69,15:44:55.500,8/28/14,0,0,, , , ,
140.30,0.03,-3.15,4.26,-14.77,216.06,29.69,15:44:55.500,8/28/14,0,0,, , , ,
141.56,-0.28,-4.80,9.94,-21.66,227.33,34.33,15:44:55.687,8/28/14,0,0,, , , ,
143.02,-0.18,-3.75,3.31,-10.83,271.36,31.43,15:44:55.906,8/28/14,0,0,, , , ,
144.89,-1.58,-5.55,6.15,-23.63,227.33,29.69,15:44:56.93,8/28/14,0,0,, , , ,
146.52,-1.44,-4.41,3.31,-10.83,218.11,29.69,15:44:56.296,8/28/14,0,0,, , , ,
148.13,-1.61,-4.82,7.10,-17.72,229.38,30.85,15:44:56.296,8/28/14,0,0,, , , ,
149.19,-1.72,-4.87,4.26,-22.65,233.47,29.69,15:44:56.546,8/28/14,0,0,, , , ,
149.88,-1.10,-3.28,2.37,-10.83,239.62,29.69,15:44:56.734,8/28/14,0,0,, , , ,
150.44,-1.26,-2.99,1.42,-13.78,231.42,34.91,15:44:56.734,8/28/14,0,0,, , , ,
151.08,-2.85,-3.86,12.78,-24.62,234.50,29.69,15:44:56.312,8/28/14,0,0,, , , ,
151.07,-2.44,-1.84,3.31,-7.88,218.11,29.69,15:44:56.312,8/28/14,0,0,, , , ,
150.71,-1.61,-0.26,1.42,0.98,252.93,29.69,15:44:56.531,8/28/14,0,0,, , , ,
150.47,-2.33,-3.37,8.04,-27.57,234.50,34.33,15:44:56.734,8/28/14,0,0,, , , ,
149.95,-2.65,-3.26,10.88,-19.69,245.76,30.85,15:44:56.734,8/28/14,0,0,, , , ,
148.83,-1.29,-0.42,-2.37,-1.97,263.17,29.69,15:44:56.15,8/28/14,0,0,, , , ,
147.79,-2.69,-1.62,8.99,-13.78,229.38,29.69,15:44:56.234,8/28/14,0,0,, , , ,
146.46,-2.53,-2.51,5.21,-19.69,248.83,29.69,15:44:56.234,8/28/14,0,0,, , , ,
144.74,-2.12,-0.58,0.47,-1.97,211.97,30.27,15:44:56.453,8/28/14,0,0,, , , ,
142.85,-2.16,-0.99,-1.42,-1.97,229.38,29.69,15:44:56.453,8/28/14,0,0,, , , ,
141.17,-3.14,-3.54,8.04,-19.69,260.10,29.69,15:44:56.640,8/28/14,0,0,, , , ,
139.15,-3.31,-3.62,4.26,-12.80,240.64,29.69,15:44:56.859,8/28/14,0,0,, , , ,
136.58,-2.35,-2.32,1.42,-1.97,263.17,30.85,15:44:56.859,8/28/14,0,0,, , , ,
134.08,-3.12,-3.70,7.10,-15.75,243.71,29.69,15:44:57.31,8/28/14,0,0,, , , ,
131.24,-2.93,-3.97,4.26,-16.74,238.59,29.69,15:44:57.31,8/28/14,0,0,, , , ,
128.10,-1.98,-2.13,1.42,-4.92,245.76,29.69,15:44:57.218,8/28/14,0,0,, , , ,
125.14,-2.01,-2.44,2.37,-8.86,228.35,34.33,15:44:57.421,8/28/14,0,0,, , , ,
122.27,-1.98,-3.30,4.26,-14.77,253.95,29.69,15:44:57.421,8/28/14,0,0,, , , ,
119.38,-1.53,-2.67,3.31,-6.89,269.31,29.69,15:44:57.390,8/28/14,0,0,, , , ,
116.77,-1.17,-2.99,-3.31,-12.80,241.66,29.69,15:44:57.609,8/28/14,0,0,, , , ,
114.65,-2.43,-3.72,7.10,-15.75,252.93,33.17,15:44:57.609,8/28/14,0,0,, , , ,
112.54,-2.32,-3.52,-3.31,-14.77,229.38,29.69,15:44:57.796,8/28/14,0,0,, , , ,
110.55,-2.83,-2.41,6.15,-6.89,261.12,29.69,15:44:58.0,8/28/14,0,0,, , , ,
108.75,-1.85,-3.59,-3.31,-15.75,258.05,29.69,15:44:58.0,8/28/14,0,0,, , , ,
107.40,-2.78,-4.84,10.88,-21.66,254.98,34.33,15:44:58.203,8/28/14,0,0,, , , ,
106.01,-1.64,-4.21,-3.31,-13.78,250.88,29.69,15:44:58.203,8/28/14,0,0,, , , ,
105.18,-2.48,-3.76,11.83,-11.82,272.38,29.69,15:44:58.406,8/28/14,0,0,, , , ,
104.64,-2.11,-5.32,0.47,-26.58,234.50,29.69,15:44:58.593,8/28/14,0,0,, , , ,
104.44,-2.55,-4.49,12.78,-16.74,264.19,34.91,15:44:58.593,8/28/14,0,0,, , , ,
104.43,-0.67,-4.39,-4.26,-14.77,242.69,29.69,15:44:58.796,8/28/14,0,0,, , , ,
105.41,-2.17,-5.88,12.78,-21.66,247.81,29.69,15:44:58.796,8/28/14,0,0,, , , ,
106.37,-0.92,-5.73,-2.37,-19.69,220.16,29.69,15:44:59.0,8/28/14,0,0,, , , ,
107.82,-1.06,-3.93,4.26,-7.88,266.24,34.33,15:44:59.203,8/28/14,0,0,, , , ,
109.60,-1.39,-4.98,1.42,-24.62,256.00,29.69,15:44:59.203,8/28/14,0,0,, , , ,
111.74,-2.14,-5.36,7.10,-19.69,244.74,29.69,15:44:59.390,8/28/14,0,0,, , , ,
113.81,-1.97,-4.58,-0.47,-16.74,260.10,29.69,15:44:59.609,8/28/14,0,0,, , , ,
116.17,-2.68,-5.32,7.10,-15.75,238.59,30.85,15:44:59.609,8/28/14,0,0,, , , ,
118.51,-3.02,-6.42,4.26,-21.66,239.62,29.69,15:44:59.796,8/28/14,0,0,, , , ,
120.52,-2.86,-6.02,8.99,-18.71,227.33,29.69,15:44:59.796,8/28/14,0,0,, , , ,
121.94,-1.54,-4.88,3.31,-12.80,236.54,29.69,15:45:0.0,8/28/14,0,0,, , , ,
123.19,-0.97,-4.75,8.99,-14.77,227.33,29.11,15:45:0.187,8/28/14,0,0,, , , ,
124.20,-0.17,-5.47,6.15,-24.62,259.07,30.27,15:45:0.187,8/28/14,0,0,, , , ,
125.22,0.42,-4.93,3.31,-15.75,238.59,29.69,15:45:0.406,8/28/14,0,0,, , , ,
126.31,0.19,-4.49,7.10,-16.74,253.95,29.69,15:45:0.609,8/28/14,0,0,, , , ,
127.41,0.27,-4.16,2.37,-19.69,232.45,25.63,15:45:0.609,8/28/14,0,0,, , , ,
128.71,-0.02,-3.44,5.21,-13.78,238.59,34.91,15:45:0.796,8/28/14,0,0,, , , ,
130.23,-0.71,-3.92,7.10,-19.69,247.81,29.69,15:45:0.796,8/28/14,0,0,, , , ,
131.85,-0.85,-4.36,8.04,-17.72,241.66,29.69,15:45:0.984,8/28/14,0,0,, , , ,
133.36,-0.13,-4.01,1.42,-11.82,244.74,29.69,15:45:1.203,8/28/14,0,0,, , , ,
135.00,-0.39,-4.70,6.15,-18.71,218.11,34.91,15:45:1.203,8/28/14,0,0,, , , ,
136.50,0.18,-5.01,3.31,-18.71,221.18,29.69,15:45:1.406,8/28/14,0,0,, , , ,
137.84,0.96,-3.94,1.42,-12.80,248.83,29.69,15:45:1.406,8/28/14,0,0,, , , ,
139.44,0.72,-4.24,1.42,-20.68,235.52,29.69,15:45:1.609,8/28/14,0,0,, , , ,
141.28,0.14,-4.58,4.26,-21.66,237.57,34.91,15:45:1.796,8/28/14,0,0,, , , ,
143.09,-0.44,-3.31,1.42,-8.86,232.45,30.27,15:45:1.796,8/28/14,0,0,, , , ,
144.88,-1.47,-3.45,-0.47,-12.80,223.23,29.69,15:45:2.0,8/28/14,0,0,, , , ,
146.49,-3.29,-4.12,11.83,-19.69,233.47,29.69,15:45:2.0,8/28/14,0,0,, , , ,
147.20,-2.29,-2.96,1.42,-6.89,239.62,35.49,15:45:2.203,8/28/14,0,0,, , , ,
147.51,-2.59,-2.91,7.10,-6.89,244.74,29.69,15:45:2.406,8/28/14,0,0,, , , ,
147.47,-2.75,-4.97,6.15,-21.66,246.78,29.69,15:45:2.406,8/28/14,0,0,, , , ,
146.92,-2.66,-5.03,8.04,-16.74,249.86,29.69,15:45:2.593,8/28/14,0,0,, , , ,
145.84,-2.34,-4.30,7.10,-15.75,243.71,34.91,15:45:2.796,8/28/14,0,0,, , , ,
144.26,-1.78,-4.12,8.99,-17.72,238.59,29.69,15:45:2.796,8/28/14,0,0,, , , ,
142.26,-1.06,-3.27,5.21,-15.75,235.52,29.69,15:45:3.0,8/28/14,0,0,, , , ,
140.06,-1.28,-2.33,7.10,-14.77,256.00,29.69,15:45:3.0,8/28/14,0,0,, , , ,
137.81,-1.48,-2.48,5.21,-18.71,242.69,30.85,15:45:3.203,8/28/14,0,0,, , , ,
135.65,-2.36,-1.94,8.04,-10.83,243.71,30.27,15:45:3.390,8/28/14,0,0,, , , ,
133.60,-3.34,-2.32,8.04,-19.69,241.66,29.69,15:45:3.390,8/28/14,0,0,, , , ,
131.73,-4.32,-3.04,21.29,-23.63,276.48,29.69,15:45:3.609,8/28/14,0,0,, , , ,
129.68,-3.12,-2.78,7.10,-16.74,226.30,34.91,15:45:3.796,8/28/14,0,0,, , , ,
127.55,-3.08,-1.69,16.56,-13.78,234.50,30.27,15:45:3.796,8/28/14,0,0,, , , ,
125.29,-0.94,-1.57,3.31,-17.72,215.04,29.69,15:45:4.0,8/28/14,0,0,, , , ,
123.08,-0.73,-0.90,8.99,-5.91,215.04,29.69,15:45:4.0,8/28/14,0,0,, , , ,
121.04,-0.33,-2.46,-0.47,-15.75,237.57,32.59,15:45:4.187,8/28/14,0,0,, , , ,
119.43,-2.55,-3.80,11.83,-12.80,212.99,30.27,15:45:4.406,8/28/14,0,0,, , , ,
117.84,-2.53,-4.29,2.37,-11.82,217.09,29.69,15:45:4.406,8/28/14,0,0,, , , ,
116.43,-3.75,-4.75,13.72,-12.80,222.21,29.69,15:45:4.609,8/28/14,0,0,, , , ,
114.69,-3.18,-4.53,3.31,-17.72,247.81,34.33,15:45:4.796,8/28/14,0,0,, , , ,
112.81,-3.32,-3.66,5.21,-5.91,259.07,30.27,15:45:4.796,8/28/14,0,0,, , , ,
110.66,-3.00,-3.72,9.94,-23.63,249.86,29.69,15:45:4.984,8/28/14,0,0,, , , ,
108.52,-3.47,-2.89,4.26,-6.89,231.42,29.69,15:45:4.984,8/28/14,0,0,, , , ,
106.07,-2.92,-1.69,7.10,-10.83,252.93,34.33,15:45:5.203,8/28/14,0,0,, , , ,
103.78,-2.68,-2.20,9.94,-13.78,254.98,30.27,15:45:5.406,8/28/14,0,0,, , , ,
101.63,-2.84,-2.91,4.26,-13.78,229.38,29.69,15:45:5.406,8/28/14,0,0,, , , ,
99.65,-2.58,-2.81,4.26,-9.85,242.69,29.69,15:45:5.609,8/28/14,0,0,, , , ,
97.91,-3.07,-3.14,3.31,-11.82,232.45,29.69,15:45:5.609,8/28/14,0,0,, , , ,
96.31,-2.95,-3.79,2.37,-16.74,239.62,35.49,15:45:5.796,8/28/14,0,0,, , , ,
95.00,-3.65,-3.95,9.94,-19.69,244.74,29.69,15:45:6.0,8/28/14,0,0,, , , ,
93.55,-3.28,-2.40,8.04,-14.77,276.48,29.69,15:45:6.0,8/28/14,0,0,, , , ,
92.28,-2.77,-1.46,8.04,-10.83,263.17,29.69,15:45:6.203,8/28/14,0,0,, , , ,
91.39,-2.31,-2.77,6.15,-20.68,269.31,34.33,15:45:6.406,8/28/14,0,0,, , , ,
90.90,-2.63,-3.81,7.10,-22.65,248.83,29.69,15:45:6.406,8/28/14,0,0,, , , ,
90.63,-2.15,-2.94,2.37,-16.74,247.81,29.69,15:45:6.593,8/28/14,0,0,, , , ,
91.20,-2.28,-2.58,4.26,-12.80,238.59,29.69,15:45:6.593,8/28/14,0,0,, , , ,
92.49,-3.11,-3.02,4.26,-19.69,246.78,30.85,15:45:6.796,8/28/14,0,0,, , , ,
94.22,-3.62,-2.89,8.99,-19.69,247.81,30.27,15:45:7.0,8/28/14,0,0,, , , ,
96.05,-2.45,-2.31,2.37,-13.78,237.57,29.69,15:45:7.0,8/28/14,0,0,, , , ,
98.28,-2.01,-2.46,8.99,-14.77,252.93,29.69,15:45:7.203,8/28/14,0,0,, , , ,
100.87,-1.76,-3.60,-0.47,-14.77,238.59,34.33,15:45:7.390,8/28/14,0,0,, , , ,
104.16,-3.12,-5.15,8.99,-18.71,244.74,30.27,15:45:7.390,8/28/14,0,0,, , , ,
107.56,-4.01,-6.21,7.10,-24.62,236.54,29.69,15:45:7.609,8/28/14,0,0,, , , ,
110.70,-3.74,-5.43,9.94,-17.72,252.93,29.69,15:45:7.609,8/28/14,0,0,, , , ,
113.37,-3.03,-4.02,3.31,-11.82,266.24,32.59,15:45:7.796,8/28/14,0,0,, , , ,
116.25,-3.32,-5.46,10.88,-23.63,252.93,34.33,15:45:8.0,8/28/14,0,0,, , , ,
118.73,-3.01,-6.00,8.99,-22.65,240.64,29.69,15:45:8.0,8/28/14,0,0,, , , ,
120.93,-1.89,-4.92,7.10,-12.80,247.81,29.69,15:45:8.187,8/28/14,0,0,, , , ,
122.93,-1.30,-6.01,8.99,-23.63,237.57,30.27,15:45:8.187,8/28/14,0,0,, , , ,
124.70,-0.27,-6.23,4.26,-21.66,219.14,35.49,15:45:8.406,8/28/14,0,0,, , , ,
126.46,-0.24,-5.17,8.04,-14.77,239.62,30.27,15:45:8.609,8/28/14,0,0,, , , ,
128.29,-0.29,-5.81,6.15,-25.60,236.54,29.69,15:45:8.609,8/28/14,0,0,, , , ,
130.01,-0.44,-5.02,9.94,-20.68,228.35,30.27,15:45:8.796,8/28/14,0,0,, , , ,
131.52,0.04,-3.09,1.42,-12.80,224.26,34.91,15:45:8.984,8/28/14,0,0,, , , ,
133.06,-0.48,-3.00,8.99,-19.69,229.38,29.69,15:45:8.984,8/28/14,0,0,, , , ,
134.39,0.40,-3.23,6.15,-22.65,245.76,29.69,15:45:9.203,8/28/14,0,0,, , , ,
135.69,1.09,-3.05,4.26,-16.74,254.98,30.27,15:45:9.203,8/28/14,0,0,, , , ,
137.27,1.21,-4.44,6.15,-25.60,261.12,32.59,15:45:9.406,8/28/14,0,0,, , , ,
138.95,0.61,-4.49,5.21,-25.60,229.38,30.27,15:45:9.609,8/28/14,0,0,, , , ,
140.66,0.53,-2.67,4.26,-11.82,249.86,30.27,15:45:9.609,8/28/14,0,0,, , , ,
142.50,-0.14,-2.83,5.21,-18.71,222.21,29.69,15:45:9.796,8/28/14,0,0,, , , ,
144.37,-0.21,-2.90,5.21,-17.72,224.26,34.91,15:45:9.796,8/28/14,0,0,, , , ,
146.33,-0.55,-2.48,3.31,-15.75,252.93,30.85,15:45:10.0,8/28/14,0,0,, , , ,
148.59,-1.24,-3.33,5.21,-17.72,224.26,29.69,15:45:10.203,8/28/14,0,0,, , , ,
150.86,-1.05,-3.36,1.42,-16.74,243.71,29.69,15:45:10.203,8/28/14,0,0,, , , ,
153.24,-1.51,-3.05,3.31,-7.88,231.42,30.27,15:45:10.406,8/28/14,0,0,, , , ,
155.65,-2.34,-4.19,4.26,-17.72,227.33,34.91,15:45:10.406,8/28/14,0,0,, , , ,
157.82,-2.66,-4.64,5.21,-15.75,245.76,30.27,15:45:10.593,8/28/14,0,0,, , , ,
159.35,-2.76,-4.03,3.31,-8.86,244.74,25.63,15:45:10.796,8/28/14,0,0,, , , ,
160.43,-2.97,-4.71,9.94,-13.78,242.69,30.27,15:45:10.796,8/28/14,0,0,, , , ,
160.86,-2.88,-5.48,11.83,-17.72,261.12,32.59,15:45:11.0,8/28/14,0,0,, , , ,
160.55,-1.44,-5.47,6.15,-12.80,267.26,30.27,15:45:11.203,8/28/14,0,0,, , , ,
159.92,-1.23,-6.20,8.99,-20.68,254.98,29.69,15:45:11.203,8/28/14,0,0,, , , ,
158.86,-0.89,-6.15,8.04,-18.71,245.76,30.27,15:45:11.390,8/28/14,0,0,, , , ,
157.40,-0.12,-4.90,4.26,-10.83,246.78,34.91,15:45:11.390,8/28/14,0,0,, , , ,
156.00,-0.62,-5.51,5.21,-14.77,240.64,31.43,15:45:11.609,8/28/14,0,0,, , , ,
154.47,-1.55,-6.04,3.31,-19.69,257.02,29.69,15:45:11.796,8/28/14,0,0,, , , ,
152.80,-2.20,-5.66,11.83,-13.78,237.57,29.69,15:45:11.796,8/28/14,0,0,, , , ,
150.82,-1.52,-5.80,6.15,-12.80,248.83,36.07,15:45:12.0,8/28/14,0,0,, , , ,
148.94,-1.33,-7.34,11.83,-22.65,228.35,30.27,15:45:12.187,8/28/14,0,0,, , , ,
146.88,-0.62,-7.26,7.10,-19.69,218.11,30.27,15:45:12.187,8/28/14,0,0,, , , ,
144.84,0.32,-5.30,4.26,-6.89,251.90,30.27,15:45:12.406,8/28/14,0,0,, , , ,
143.23,0.36,-6.41,2.37,-28.55,245.76,30.27,15:45:12.406,8/28/14,0,0,, , , ,
142.19,-0.88,-6.85,10.88,-25.60,242.69,31.43,15:45:12.609,8/28/14,0,0,, , , ,
141.06,-0.09,-4.63,2.37,-16.74,269.31,29.69,15:45:12.796,8/28/14,0,0,, , , ,
140.37,-0.51,-3.36,0.47,-14.77,241.66,30.27,15:45:12.796,8/28/14,0,0,, , , ,
140.11,-0.45,-4.08,7.10,-17.72,229.38,29.69,15:45:12.984,8/28/14,0,0,, , , ,
140.19,-1.06,-4.14,9.94,-18.71,246.78,33.75,15:45:13.203,8/28/14,0,0,, , , ,
140.34,0.01,-3.33,-1.42,-18.71,249.86,30.27,15:45:13.203,8/28/14,0,0,, , , ,
141.02,-1.38,-3.35,14.67,-18.71,250.88,29.69,15:45:13.406,8/28/14,0,0,, , , ,
141.72,-0.82,-3.64,-1.42,-24.62,221.18,30.27,15:45:13.406,8/28/14,0,0,, , , ,
142.52,-1.30,-1.99,11.83,-11.82,230.40,34.91,15:45:13.609,8/28/14,0,0,, , , ,
143.28,0.20,-1.76,-2.37,-9.85,228.35,30.27,15:45:13.796,8/28/14,0,0,, , , ,
144.50,-0.94,-3.24,12.78,-19.69,248.83,30.27,15:45:13.796,8/28/14,0,0,, , , ,
145.61,-0.01,-3.46,0.47,-16.74,214.02,30.27,15:45:14.0,8/28/14,0,0,, , , ,
146.79,0.44,-2.66,3.31,-11.82,226.30,30.85,15:45:14.0,8/28/14,0,0,, , , ,
148.17,0.02,-3.07,2.37,-19.69,228.35,31.43,15:45:14.203,8/28/14,0,0,, , , ,
149.64,-1.51,-2.49,9.94,-18.71,265.22,30.27,15:45:14.406,8/28/14,0,0,, , , ,
150.89,-1.26,-1.44,-0.47,-9.85,252.93,30.27,15:45:14.406,8/28/14,0,0,, , , ,
152.34,-2.78,-2.65,10.88,-20.68,244.74,32.01,15:45:14.593,8/28/14,0,0,, , , ,
153.52,-3.29,-2.88,11.83,-23.63,262.14,30.27,15:45:14.796,8/28/14,0,0,, , , ,
154.20,-2.59,-1.09,4.26,-7.88,240.64,30.27,15:45:14.796,8/28/14,0,0,, , , ,
154.65,-2.84,-1.63,9.94,-14.77,239.62,30.27,15:45:15.0,8/28/14,0,0,, , , ,
154.83,-2.55,-3.24,11.83,-22.65,242.69,30.27,15:45:15.0,8/28/14,0,0,, , , ,
154.48,-1.45,-2.83,7.10,-15.75,257.02,33.75,15:45:15.203,8/28/14,0,0,, , , ,
153.82,-1.22,-2.35,9.94,-15.75,249.86,30.27,15:45:15.390,8/28/14,0,0,, , , ,
152.90,-1.14,-2.33,8.99,-18.71,229.38,30.27,15:45:15.390,8/28/14,0,0,, , , ,
151.68,-1.05,-1.48,8.99,-9.85,233.47,30.27,15:45:15.609,8/28/14,0,0,, , , ,
150.32,-0.71,-2.16,6.15,-11.82,228.35,32.01,15:45:15.796,8/28/14,0,0,, , , ,
148.96,-0.72,-4.26,9.94,-19.69,237.57,30.27,15:45:15.796,8/28/14,0,0,, , , ,
147.37,-0.19,-4.58,5.21,-16.74,224.26,30.27,15:45:16.0,8/28/14,0,0,, , , ,
145.51,0.26,-3.42,3.31,-5.91,210.94,30.27,15:45:16.0,8/28/14,0,0,, , , ,
143.47,0.49,-3.95,-0.47,-8.86,192.51,34.91,15:45:16.187,8/28/14,0,0,, , , ,
141.28,-0.60,-4.32,7.10,-16.74,258.05,30.27,15:45:16.406,8/28/14,0,0,, , , ,
138.81,-0.81,-4.32,2.37,-14.77,235.52,30.27,15:45:16.406,8/28/14,0,0,, , , ,
136.37,-1.76,-4.32,5.21,-10.83,245.76,30.27,15:45:16.609,8/28/14,0,0,, , , ,
133.99,-2.83,-4.94,3.31,-14.77,232.45,35.49,15:45:16.609,8/28/14,0,0,, , , ,
131.26,-3.53,-4.74,7.10,-11.82,235.52,30.27,15:45:16.796,8/28/14,0,0,, , , ,
128.11,-3.04,-4.57,4.26,-7.88,241.66,30.27,15:45:16.984,8/28/14,0,0,, , , ,
124.77,-2.81,-5.21,7.10,-16.74,239.62,30.27,15:45:16.984,8/28/14,0,0,, , , ,
121.17,-2.52,-5.41,8.04,-19.69,252.93,31.43,15:45:17.203,8/28/14,0,0,, , , ,
117.28,-1.37,-4.17,2.37,-15.75,275.46,30.27,15:45:17.406,8/28/14,0,0,, , , ,
113.80,-1.47,-4.30,8.99,-15.75,262.14,30.27,15:45:17.406,8/28/14,0,0,, , , ,
110.75,-1.42,-5.19,5.21,-23.63,254.98,30.27,15:45:17.609,8/28/14,0,0,, , , ,
108.33,-2.17,-4.79,5.21,-16.74,221.18,30.27,15:45:17.609,8/28/14,0,0,, , , ,
106.66,-3.07,-4.10,5.21,-15.75,254.98,33.75,15:45:17.796,8/28/14,0,0,, , , ,
105.29,-3.53,-3.48,6.15,-18.71,246.78,25.63,15:45:18.0,8/28/14,0,0,, , , ,
104.03,-3.07,-2.87,9.94,-15.75,259.07,30.27,15:45:18.0,8/28/14,0,0,, , , ,
102.86,-2.26,-2.68,17.51,-9.85,242.69,30.27,15:45:18.203,8/28/14,0,0,, , , ,
101.77,-0.27,-3.48,-1.42,-19.69,228.35,34.91,15:45:18.406,8/28/14,0,0,, , , ,
100.83,0.83,-3.94,9.94,-19.69,249.86,30.27,15:45:18.406,8/28/14,0,0,, , , ,
100.29,0.99,-3.84,7.10,-13.78,268.29,30.27,15:45:18.593,8/28/14,0,0,, , , ,
100.31,0.03,-4.63,8.04,-23.63,245.76,30.27,15:45:18.593,8/28/14,0,0,, , , ,
100.58,-0.25,-3.97,4.26,-18.71,233.47,29.69,15:45:18.796,8/28/14,0,0,, , , ,
101.11,-0.63,-3.03,7.10,-10.83,241.66,30.27,15:45:19.0,8/28/14,0,0,, , , ,
101.92,-0.79,-4.48,3.31,-24.62,222.21,30.27,15:45:19.0,8/28/14,0,0,, , , ,
102.89,-1.26,-4.70,11.83,-22.65,234.50,30.27,15:45:19.203,8/28/14,0,0,, , , ,
103.75,-0.03,-3.54,1.42,-13.78,221.18,34.91,15:45:19.203,8/28/14,0,0,, , , ,
104.86,-0.07,-3.46,9.94,-12.80,238.59,30.27,15:45:19.390,8/28/14,0,0,, , , ,
106.23,-0.05,-5.39,2.37,-23.63,217.09,30.27,15:45:19.609,8/28/14,0,0,, , , ,
107.97,-1.21,-5.88,10.88,-18.71,241.66,30.27,15:45:19.609,8/28/14,0,0,, , , ,
109.75,-1.08,-6.36,2.37,-25.60,251.90,34.91,15:45:19.796,8/28/14,0,0,, , , ,
111.78,-2.45,-6.55,14.67,-28.55,249.86,31.43,15:45:19.796,8/28/14,0,0,, , , ,
113.53,-1.83,-5.18,1.42,-20.68,242.69,30.27,15:45:20.0,8/28/14,0,0,, , , ,
115.38,-2.74,-4.20,12.78,-17.72,247.81,30.27,15:45:20.187,8/28/14,0,0,, , , ,
117.07,-2.37,-4.37,2.37,-23.63,220.16,32.59,15:45:20.187,8/28/14,0,0,, , , ,
118.75,-3.22,-2.64,8.99,-10.83,211.97,30.85,15:45:20.406,8/28/14,0,0,, , , ,
120.38,-1.99,-2.28,1.42,-19.69,223.23,30.27,15:45:20.609,8/28/14,0,0,, , , ,
122.11,-1.81,-2.47,13.72,-18.71,240.64,35.49,15:45:20.609,8/28/14,0,0,, , , ,
123.96,0.03,-2.12,5.21,-19.69,269.31,32.59,15:45:20.796,8/28/14,0,0,, , , ,
125.84,-0.34,-2.17,7.10,-21.66,261.12,31.43,15:45:20.984,8/28/14,0,0,, , , ,
127.56,-0.79,-1.45,10.88,-15.75,277.50,35.49,15:45:21.203,8/28/14,0,0,, , , ,
129.24,-0.78,-1.52,5.21,-20.68,269.31,30.27,15:45:21.406,8/28/14,0,0,, , , ,
131.04,-1.44,-1.82,8.99,-18.71,257.02,30.27,15:45:21.406,8/28/14,0,0,, , , ,
132.76,-1.90,-1.11,7.10,-9.85,238.59,30.27,15:45:21.406,8/28/14,0,0,, , , ,
134.34,-1.80,-1.49,2.37,-6.89,226.30,34.91,15:45:21.609,8/28/14,0,0,, , , ,
135.87,-2.03,-3.77,10.88,-23.63,233.47,36.07,15:45:21.796,8/28/14,0,0,, , , ,
137.02,-0.64,-3.92,3.31,-14.77,236.54,30.27,15:45:21.796,8/28/14,0,0,, , , ,
137.96,-0.47,-3.02,4.26,-6.89,247.81,30.27,15:45:22.0,8/28/14,0,0,, , , ,
138.89,-1.35,-4.65,5.21,-23.63,228.35,34.91,15:45:22.203,8/28/14,0,0,, , , ,
139.50,-2.19,-4.06,13.72,-11.82,234.50,30.27,15:45:22.203,8/28/14,0,0,, , , ,
139.50,-0.51,-3.29,-2.37,-5.91,249.86,30.27,15:45:22.406,8/28/14,0,1,, , , ,
139.75,-1.74,-5.51,11.83,-18.71,243.71,30.27,15:45:22.406,8/28/14,1,1,4052.6062N, 8226.9824W,25.73,10166.40,3
139.74,-1.40,-6.52,0.47,-22.65,239.62,30.85,15:45:22.593,8/28/14,1,1,4052.6035N, 8226.9804W,25.73,10166.40,3
139.64,-2.10,-4.43,6.15,-6.89,241.66,30.27,15:45:22.593,8/28/14,1,1,4052.6035N, 8226.9804W,26.27,10166.40,3
139.25,-2.60,-4.35,0.47,-9.85,224.26,30.27,15:45:22.796,8/28/14,1,1,4052.6015N, 8226.9785W,26.47,10166.40,3
138.90,-3.93,-5.02,11.83,-18.71,243.71,30.27,15:45:23.0,8/28/14,1,1,4052.6005N, 8226.9755W,26.47,10166.30,3
137.84,-2.71,-4.27,3.31,-20.68,245.76,30.27,15:45:23.0,8/28/14,1,1,4052.6005N, 8226.9755W,26.67,10166.30,3
136.41,-1.76,-2.35,3.31,-9.85,258.05,34.91,15:45:23.203,8/28/14,1,1,4052.5996N, 8226.9746W,27.05,10166.30,3
134.71,-1.49,-1.77,4.26,-6.89,258.05,30.27,15:45:23.203,8/28/14,1,1,4052.5996N, 8226.9746W,27.05,10166.30,3
133.26,-1.59,-3.03,1.42,-17.72,239.62,30.27,15:45:23.390,8/28/14,1,1,4052.5991N, 8226.9716W,27.61,10166.30,4
131.99,-2.36,-2.94,6.15,-14.77,269.31,29.69,15:45:23.609,8/28/14,1,1,4052.5983N, 8226.9697W,27.61,10166.30,4
130.83,-2.23,-2.70,2.37,-12.80,247.81,32.01,15:45:23.609,8/28/14,1,1,4052.5983N, 8226.9697W,28.16,10166.30,4
129.80,-2.92,-3.10,8.04,-13.78,259.07,30.27,15:45:23.796,8/28/14,1,1,4052.5971N, 8226.9667W,28.50,10166.20,4
128.88,-2.79,-3.40,4.26,-12.80,250.88,30.27,15:45:24.0,8/28/14,1,1,4052.5959N, 8226.9658W,28.50,10166.20,4
128.05,-3.59,-3.22,0.47,-12.80,253.95,30.27,15:45:24.0,8/28/14,1,1,4052.5959N, 8226.9658W,28.91,10166.20,4
126.82,-2.36,-1.85,12.78,-14.77,250.88,35.49,15:45:24.187,8/28/14,1,1,4052.5952N, 8226.9628W,28.91,10166.20,4
125.52,-1.28,-0.75,3.31,-6.89,258.05,30.27,15:45:24.187,8/28/14,1,1,4052.5952N, 8226.9628W,29.33,10166.20,4
124.47,-1.42,-1.72,4.26,-12.80,251.90,30.27,15:45:24.406,8/28/14,1,1,4052.5939N, 8226.9609W,29.74,10166.20,4
123.85,-1.57,-2.25,1.42,-10.83,222.21,30.27,15:45:24.609,8/28/14,1,1,4052.5927N, 8226.9589W,29.74,10166.10,4
123.67,-3.52,-2.05,4.26,-5.91,243.71,34.91,15:45:24.609,8/28/14,1,1,4052.5927N, 8226.9589W,30.11,10166.10,4
123.64,-4.13,-3.38,8.04,-17.72,248.83,30.27,15:45:24.796,8/28/14,1,1,4052.5917N, 8226.9570W,30.25,10166.10,4
123.57,-4.85,-2.76,10.88,-15.75,263.17,30.27,15:45:24.984,8/28/14,1,1,4052.5905N, 8226.9550W,30.25,10166.10,4
122.94,-4.03,-1.62,4.26,-14.77,258.05,30.27,15:45:24.984,8/28/14,1,1,4052.5905N, 8226.9550W,30.49,10166.10,4
122.08,-3.03,-1.44,10.88,-5.91,248.83,32.01,15:45:25.203,8/28/14,1,1,4052.5898N, 8226.9521W,30.49,10166.10,4
121.05,-1.05,-2.74,0.47,-18.71,224.26,31.43,15:45:25.203,8/28/14,1,1,4052.5898N, 8226.9521W,30.78,10166.10,4
120.10,-0.75,-2.88,8.04,-13.78,244.74,30.27,15:45:25.406,8/28/14,1,1,4052.5891N, 8226.9501W,30.98,10166.10,4
119.28,0.17,-2.01,-3.31,-8.86,240.64,30.27,15:45:25.609,8/28/14,1,1,4052.5883N, 8226.9482W,30.98,10166.00,4
118.99,-1.59,-2.29,10.88,-15.75,247.81,28.53,15:45:25.609,8/28/14,1,1,4052.5883N, 8226.9482W,31.22,10166.00,4
118.78,-1.17,-2.44,-3.31,-16.74,228.35,30.85,15:45:25.796,8/28/14,1,1,4052.5871N, 8226.9462W,31.22,10166.00,4
118.94,-2.08,-1.88,3.31,-5.91,227.33,30.27,15:45:25.796,8/28/14,1,1,4052.5871N, 8226.9462W,31.43,10166.00,4
119.34,-2.38,-2.70,-2.37,-14.77,217.09,30.27,15:45:26.0,8/28/14,1,1,4052.5861N, 8226.9433W,31.53,10166.00,4
120.09,-3.61,-2.80,13.72,-9.85,246.78,30.27,15:45:26.203,8/28/14,1,1,4052.5859N, 8226.9414W,31.53,10166.00,4
120.63,-2.64,-2.60,-6.15,-11.82,231.42,31.43,15:45:26.203,8/28/14,1,1,4052.5859N, 8226.9414W,31.61,10166.00,4
121.68,-4.07,-3.44,14.67,-17.72,276.48,30.27,15:45:26.406,8/28/14,1,1,4052.5852N, 8226.9394W,31.70,10166.00,4
122.30,-3.16,-4.08,1.42,-24.62,241.66,30.27,15:45:26.593,8/28/14,1,6,4052.5847N, 8226.9365W,31.70,10166.00,4
122.80,-2.71,-2.20,7.10,-10.83,269.31,30.27,15:45:26.593,8/28/14,0,6,, , , ,
123.11,-1.11,-1.83,-4.26,-11.82,259.07,32.59,15:45:26.796,8/28/14,0,1,, , , ,
123.87,-2.06,-3.20,9.94,-17.72,246.78,30.27,15:45:26.796,8/28/14,1,1,4052.5839N, 8226.9345W,31.80,10166.00,4
124.51,-1.71,-4.07,-2.37,-24.62,250.88,30.27,15:45:27.0,8/28/14,1,1,4052.5935N, 8226.9248W,31.81,10106.70,5
125.28,-2.53,-2.94,8.99,-13.78,275.46,30.27,15:45:27.203,8/28/14,1,1,4052.6086N, 8226.9121W,31.81,10036.20,5
125.89,-2.39,-2.70,0.47,-15.75,253.95,34.91,15:45:27.203,8/28/14,1,1,4052.6086N, 8226.9121W,31.70,10036.20,5
126.75,-3.37,-3.61,11.83,-21.66,265.22,30.27,15:45:27.390,8/28/14,0,1,, , , ,
127.24,-2.60,-3.36,-0.47,-22.65,243.71,30.27,15:45:27.609,8/28/14,0,0,, , , ,
127.44,-2.08,-1.64,8.04,-7.88,245.76,30.27,15:45:27.609,8/28/14,0,0,, , , ,
127.45,-0.80,-1.62,-0.47,-11.82,265.22,30.27,15:45:27.796,8/28/14,0,0,, , , ,
127.80,-1.32,-3.04,7.10,-18.71,249.86,32.59,15:45:28.0,8/28/14,0,0,, , , ,
128.14,-1.10,-3.30,-3.31,-14.77,249.86,30.27,15:45:28.0,8/28/14,0,0,, , , ,
128.86,-2.81,-3.11,6.15,-14.77,243.71,30.27,15:45:28.187,8/28/14,0,0,, , , ,
129.29,-3.39,-3.16,1.42,-18.71,258.05,30.85,15:45:28.187,8/28/14,0,0,, , , ,
129.49,-3.41,-2.54,8.04,-7.88,261.12,30.85,15:45:28.406,8/28/14,0,0,, , , ,
129.37,-3.14,-3.45,1.42,-16.74,259.07,30.27,15:45:28.609,8/28/14,0,0,, , , ,
129.27,-4.14,-4.49,18.45,-14.77,257.02,30.27,15:45:28.609,8/28/14,0,0,, , , ,
128.11,-1.29,-4.11,-8.04,-18.71,235.52,30.27,15:45:28.796,8/28/14,0,0,, , , ,
127.29,-2.09,-3.25,18.45,-8.86,248.83,34.91,15:45:28.984,8/28/14,0,0,, , , ,
125.89,-0.52,-2.59,-6.15,-16.74,235.52,30.27,15:45:28.984,8/28/14,0,0,, , , ,
124.89,-1.20,-1.52,9.94,-7.88,241.66,30.27,15:45:29.203,8/28/14,0,0,, , , ,
123.91,-0.57,-1.85,-4.26,-8.86,246.78,30.27,15:45:29.203,8/28/14,0,0,, , , ,
123.66,-2.54,-3.16,12.78,-11.82,268.29,34.91,15:45:29.406,8/28/14,0,0,, , , ,
123.39,-2.70,-4.12,0.47,-17.72,259.07,30.27,15:45:29.609,8/28/14,0,0,, , , ,
123.47,-3.38,-4.46,8.99,-8.86,243.71,30.27,15:45:29.609,8/28/14,0,0,, , , ,
123.27,-3.43,-4.79,0.47,-10.83,242.69,30.27,15:45:29.796,8/28/14,0,0,, , , ,
123.30,-4.38,-5.91,9.94,-17.72,249.86,34.91,15:45:29.796,8/28/14,0,0,, , , ,
122.81,-4.52,-5.27,5.21,-10.83,256.00,30.27,15:45:30.0,8/28/14,0,0,, , , ,
121.91,-3.84,-5.20,6.15,-11.82,241.66,30.27,15:45:30.203,8/28/14,0,0,, , , ,
120.86,-3.88,-6.70,11.83,-27.57,244.74,30.27,15:45:30.203,8/28/14,0,0,, , , ,
119.10,-2.07,-4.88,4.26,-12.80,260.10,30.27,15:45:30.406,8/28/14,0,0,, , , ,
117.39,-0.53,-3.46,0.47,-5.91,262.14,31.43,15:45:30.593,8/28/14,0,0,, , , ,
116.21,-1.68,-5.47,15.62,-31.51,282.62,30.27,15:45:30.593,8/28/14,0,0,, , , ,
114.90,-0.89,-4.91,1.42,-18.71,252.93,30.27,15:45:30.796,8/28/14,0,0,, , , ,
113.99,-1.13,-3.51,8.04,-6.89,246.78,32.59,15:45:30.796,8/28/14,0,0,, , , ,
113.39,-1.24,-5.05,3.31,-18.71,223.23,32.01,15:45:31.0,8/28/14,0,0,, , , ,
113.03,-1.92,-4.80,8.99,-11.82,240.64,30.27,15:45:31.203,8/28/14,0,0,, , , ,
112.78,-1.91,-4.68,1.42,-13.78,239.62,30.27,15:45:31.203,8/28/14,0,0,, , , ,
112.84,-3.25,-5.54,13.72,-24.62,247.81,30.27,15:45:31.390,8/28/14,0,0,, , , ,
112.53,-2.46,-4.00,4.26,-13.78,250.88,32.59,15:45:31.390,8/28/14,0,0,, , , ,
112.19,-1.99,-2.70,9.94,-6.89,259.07,30.27,15:45:31.609,8/28/14,0,0,, , , ,
111.96,-1.56,-4.48,7.10,-25.60,246.78,30.27,15:45:31.796,8/28/14,0,0,, , , ,
111.75,-1.50,-4.40,15.62,-17.72,250.88,30.85,15:45:31.796,8/28/14,0,0,, , , ,
111.31,1.08,-3.24,-1.42,-6.89,238.59,34.91,15:45:32.0,8/28/14,0,0,, , , ,
111.47,0.70,-5.44,12.78,-11.82,229.38,30.27,15:45:32.0,8/28/14,0,0,, , , ,
111.77,0.95,-8.09,6.15,-29.54,226.30,30.27,15:45:32.187,8/28/14,1,1,4052.1599N, 8225.1328W,25.90,10219.60,3
112.06,0.53,-6.39,8.99,-11.82,241.66,30.27,15:45:32.406,8/28/14,1,1,4052.1579N, 8225.1289W,25.90,10219.60,3
112.69,0.67,-5.88,-3.31,-15.75,240.64,34.91,15:45:32.406,8/28/14,1,1,4052.1579N, 8225.1289W,26.22,10219.60,3
113.84,-1.92,-7.25,17.51,-30.52,231.42,30.27,15:45:32.609,8/28/14,1,1,4052.1562N, 8225.1269W,26.22,10219.60,3
114.28,0.65,-5.09,-0.47,-23.63,219.14,30.27,15:45:32.609,8/28/14,1,1,4052.1562N, 8225.1269W,26.50,10219.60,3
114.96,0.90,-2.09,8.04,-2.95,233.47,30.27,15:45:32.796,8/28/14,1,1,4052.1547N, 8225.1250W,26.67,10219.60,3
115.95,0.82,-4.02,0.47,-23.63,229.38,32.01,15:45:32.984,8/28/14,1,1,4052.1530N, 8225.1250W,26.67,10219.50,3
117.27,-0.99,-5.07,14.67,-21.66,225.28,30.85,15:45:32.984,8/28/14,1,1,4052.1530N, 8225.1250W,26.76,10219.50,3
118.35,1.00,-3.74,-3.31,-6.89,223.23,30.27,15:45:33.203,8/28/14,0,1,, , , ,
119.92,0.15,-5.12,10.88,-22.65,212.99,30.27,15:45:33.406,8/28/14,0,0,, , , ,
121.20,0.70,-6.17,9.94,-36.43,227.33,30.85,15:45:33.406,8/28/14,0,0,, , , ,
122.24,2.14,-2.89,-0.47,-7.88,264.19,31.43,15:45:33.609,8/28/14,0,0,, , , ,
123.84,1.21,-1.94,1.42,-17.72,261.12,30.27,15:45:33.796,8/28/14,0,0,, , , ,
126.08,-1.00,-3.26,8.04,-30.52,259.07,30.27,15:45:33.796,8/28/14,0,0,, , , ,
128.56,-1.95,-1.55,5.21,-10.83,233.47,30.27,15:45:34.0,8/28/14,0,0,, , , ,
130.97,-2.10,-1.03,1.42,-13.78,204.80,33.75,15:45:34.0,8/28/14,0,0,, , , ,
133.25,-2.37,-1.03,6.15,-12.80,212.99,30.27,15:45:34.203,8/28/14,0,0,, , , ,
135.24,-1.32,-1.26,1.42,-11.82,228.35,30.27,15:45:34.406,8/28/14,0,0,, , , ,
136.97,-1.15,-2.63,8.99,-16.74,242.69,30.27,15:45:34.406,8/28/14,0,0,, , , ,
138.33,-0.53,-3.61,2.37,-13.78,258.05,34.91,15:45:34.593,8/28/14,0,0,, , , ,
139.40,-0.61,-4.84,6.15,-16.74,233.47,30.27,15:45:34.796,8/28/14,0,0,, , , ,
140.11,0.38,-5.56,2.37,-16.74,251.90,30.27,15:45:34.796,8/28/14,0,0,, , , ,
140.62,0.24,-5.44,0.47,-11.82,233.47,30.27,15:45:35.0,8/28/14,0,0,, , , ,
141.05,-0.78,-5.58,4.26,-17.72,245.76,35.49,15:45:35.0,8/28/14,0,0,, , , ,
141.07,-1.64,-4.72,6.15,-13.78,253.95,30.27,15:45:35.203,8/28/14,0,0,, , , ,
140.71,-1.40,-4.34,1.42,-10.83,258.05,30.27,15:45:35.390,8/28/14,0,0,, , , ,
140.37,-2.61,-5.44,8.99,-21.66,237.57,30.27,15:45:35.390,8/28/14,0,0,, , , ,
139.65,-2.39,-5.20,7.10,-12.80,238.59,34.91,15:45:35.609,8/28/14,0,0,, , , ,
138.48,-1.97,-3.96,5.21,-6.89,242.69,30.27,15:45:35.609,8/28/14,0,0,, , , ,
137.04,-1.45,-4.95,6.15,-16.74,228.35,30.27,15:45:35.796,8/28/14,0,0,, , , ,
135.32,-1.08,-4.96,12.78,-13.78,269.31,30.27,15:45:36.0,8/28/14,0,0,, , , ,
133.61,-0.15,-5.36,-0.47,-15.75,236.54,34.91,15:45:36.0,8/28/14,0,0,, , , ,
132.42,-2.28,-6.11,17.51,-19.69,252.93,30.85,15:45:36.187,8/28/14,0,0,, , , ,
130.76,-1.14,-6.09,0.47,-17.72,230.40,30.27,15:45:36.406,8/28/14,0,0,, , , ,
129.41,-1.43,-5.53,10.88,-12.80,244.74,30.27,15:45:36.406,8/28/14,0,0,, , , ,
127.93,-0.78,-5.65,2.37,-21.66,237.57,34.91,15:45:36.609,8/28/14,0,0,, , , ,
126.70,-0.20,-5.87,10.88,-16.74,236.54,30.85,15:45:36.609,8/28/14,0,0,, , , ,
125.50,0.65,-5.60,-1.42,-19.69,243.71,30.27,15:45:36.796,8/28/14,0,0,, , , ,
125.00,0.18,-5.96,13.72,-19.69,257.02,30.27,15:45:36.984,8/28/14,0,0,, , , ,
124.64,0.94,-5.82,-1.42,-19.69,229.38,30.85,15:45:36.984,8/28/14,0,0,, , , ,
124.96,0.41,-5.32,8.04,-18.71,234.50,31.43,15:45:37.203,8/28/14,0,0,, , , ,
125.40,0.20,-4.12,-0.47,-13.78,212.99,30.27,15:45:37.203,8/28/14,0,0,, , , ,
126.25,-0.40,-3.57,8.04,-14.77,248.83,30.27,15:45:37.406,8/28/14,0,0,, , , ,
127.28,-0.57,-4.05,4.26,-14.77,199.68,30.27,15:45:37.609,8/28/14,0,0,, , , ,
128.41,-0.46,-3.69,5.21,-13.78,245.76,33.17,15:45:37.609,8/28/14,0,0,, , , ,
129.60,-0.94,-3.61,5.21,-14.77,232.45,30.27,15:45:37.796,8/28/14,0,0,, , , ,
130.86,-1.17,-4.29,7.10,-26.58,243.71,30.27,15:45:38.0,8/28/14,0,0,, , , ,
132.00,-1.46,-2.77,8.99,-15.75,256.00,30.85,15:45:38.0,8/28/14,0,0,, , , ,
132.98,-0.85,-1.65,2.37,-11.82,232.45,35.49,15:45:38.203,8/28/14,0,0,, , , ,
134.07,-1.29,-2.78,11.83,-19.69,249.86,30.85,15:45:38.203,8/28/14,0,0,, , , ,
135.05,-0.25,-3.31,6.15,-18.71,235.52,30.27,15:45:38.406,8/28/14,0,0,, , , ,
135.97,0.45,-2.47,8.04,-9.85,256.00,30.27,15:45:38.593,8/28/14,0,0,, , , ,
136.97,0.95,-4.00,0.47,-22.65,230.40,30.27,15:45:38.593,8/28/14,0,0,, , , ,
138.28,0.32,-4.72,8.99,-17.72,230.40,36.07,15:45:38.796,8/28/14,0,0,, , , ,
139.61,0.13,-4.27,0.47,-14.77,244.74,30.85,15:45:39.0,8/28/14,0,0,, , , ,
141.24,-1.67,-4.92,11.83,-22.65,229.38,30.85,15:45:39.0,8/28/14,0,0,, , , ,
142.54,-1.50,-4.51,3.31,-20.68,222.21,30.27,15:45:39.203,8/28/14,0,0,, , , ,
143.45,-1.81,-1.96,8.04,-9.85,225.28,34.91,15:45:39.203,8/28/14,0,0,, , , ,
143.88,-0.80,-1.45,2.37,-17.72,234.50,31.43,15:45:39.390,8/28/14,0,0,, , , ,
144.18,-0.84,-1.40,13.72,-17.72,257.02,30.27,15:45:39.609,8/28/14,0,0,, , , ,
144.25,0.46,-1.44,1.42,-18.71,243.71,30.27,15:45:39.609,8/28/14,0,0,, , , ,
144.36,0.04,-1.32,10.88,-10.83,232.45,30.27,15:45:39.796,8/28/14,0,0,, , , ,
144.30,0.78,-1.57,0.47,-15.75,234.50,34.91,15:45:39.796,8/28/14,0,0,, , , ,
144.28,-0.43,-1.47,9.94,-15.75,230.40,30.85,15:45:40.0,8/28/14,0,0,, , , ,
143.94,-0.46,-0.56,0.47,-6.89,242.69,30.27,15:45:40.187,8/28/14,0,0,, , , ,
143.63,-0.78,-1.51,3.31,-7.88,204.80,30.27,15:45:40.187,8/28/14,0,0,, , , ,
143.33,-1.33,-3.39,6.15,-20.68,241.66,33.17,15:45:40.406,8/28/14,0,0,, , , ,
142.82,-1.29,-3.62,2.37,-11.82,228.35,30.85,15:45:40.609,8/28/14,0,0,, , , ,
142.15,-2.11,-3.49,3.31,-10.83,228.35,30.85,15:45:40.609,8/28/14,0,0,, , , ,
141.13,-2.65,-3.62,8.04,-12.80,225.28,30.27,15:45:40.796,8/28/14,0,0,, , , ,
139.61,-1.67,-3.07,2.37,-6.89,243.71,30.85,15:45:40.796,8/28/14,0,0,, , , ,
138.05,-1.81,-3.57,5.21,-10.83,254.98,33.17,15:45:40.984,8/28/14,0,0,, , , ,
136.47,-1.88,-4.78,3.31,-18.71,243.71,30.85,15:45:41.203,8/28/14,0,0,, , , ,
134.95,-2.23,-4.64,7.10,-9.85,260.10,30.85,15:45:41.203,8/28/14,0,0,, , , ,
133.34,-2.59,-4.86,5.21,-13.78,250.88,30.85,15:45:41.406,8/28/14,0,0,, , , ,
131.71,-2.99,-5.24,7.10,-20.68,235.52,35.49,15:45:41.406,8/28/14,0,0,, , , ,
129.67,-2.20,-3.73,5.21,-8.86,263.17,30.85,15:45:41.609,8/28/14,0,0,, , , ,
127.75,-1.37,-3.94,4.26,-14.77,239.62,30.27,15:45:41.796,8/28/14,0,0,, , , ,
126.08,-1.35,-4.99,8.99,-25.60,263.17,30.85,15:45:41.796,8/28/14,0,0,, , , ,
124.51,-0.04,-4.26,3.31,-16.74,267.26,30.85,15:45:42.0,8/28/14,0,0,, , , ,
123.45,-0.33,-4.29,7.10,-14.77,240.64,33.17,15:45:42.203,8/28/14,0,0,, , , ,
122.73,-0.60,-5.29,6.15,-26.58,251.90,30.85,15:45:42.203,8/28/14,0,0,, , , ,
122.34,-0.59,-4.67,6.15,-15.75,240.64,30.27,15:45:42.406,8/28/14,0,0,, , , ,
122.54,-0.16,-4.15,-0.47,-15.75,227.33,30.85,15:45:42.406,8/28/14,0,0,, , , ,
123.47,-1.17,-4.35,11.83,-21.66,216.06,32.59,15:45:42.593,8/28/14,0,0,, , , ,
124.52,0.11,-3.14,-1.42,-17.72,244.74,30.85,15:45:42.796,8/28/14,0,0,, , , ,
126.17,-0.20,-2.30,7.10,-12.80,241.66,30.85,15:45:42.796,8/28/14,0,0,, , , ,
128.08,0.24,-3.28,0.47,-24.62,244.74,30.85,15:45:43.0,8/28/14,0,0,, , , ,
130.46,-0.45,-2.80,7.10,-17.72,235.52,35.49,15:45:43.203,8/28/14,0,0,, , , ,
132.95,-0.58,-1.69,0.47,-13.78,256.00,30.85,15:45:43.203,8/28/14,0,0,, , , ,
135.83,-1.62,-2.19,6.15,-16.74,251.90,30.85,15:45:43.390,8/28/14,0,0,, , , ,
138.72,-1.68,-2.73,1.42,-18.71,243.71,30.85,15:45:43.390,8/28/14,0,0,, , , ,
141.48,-1.42,-2.25,4.26,-12.80,235.52,30.85,15:45:43.609,8/28/14,0,0,, , , ,
143.90,-1.06,-2.04,4.26,-10.83,239.62,31.43,15:45:43.796,8/28/14,0,0,, , , ,
146.12,-0.91,-2.84,2.37,-13.78,210.94,30.85,15:45:43.796,8/28/14,0,0,, , , ,
147.88,-1.20,-3.01,7.10,-9.85,222.21,30.85,15:45:44.0,8/28/14,0,0,, , , ,
149.27,-1.07,-3.72,4.26,-14.77,265.22,32.01,15:45:44.0,8/28/14,0,0,, , , ,
150.40,-2.24,-4.52,8.99,-14.77,242.69,31.43,15:45:44.187,8/28/14,0,0,, , , ,
151.23,-2.08,-4.86,8.99,-8.86,252.93,31.43,15:45:44.406,8/28/14,0,0,, , , ,
151.31,-1.85,-5.81,0.47,-21.66,227.33,31.43,15:45:44.609,8/28/14,0,0,, , , ,
150.60,-2.07,-5.01,9.94,-8.86,237.57,33.75,15:45:44.796,8/28/14,0,0,, , , ,
149.25,-1.57,-5.04,9.94,-11.82,241.66,31.43,15:45:44.796,8/28/14,0,0,, , , ,
148.13,-2.27,-5.82,8.04,-20.68,220.16,35.49,15:45:44.984,8/28/14,0,0,, , , ,
146.65,-1.96,-4.29,8.99,-10.83,250.88,35.49,15:45:45.203,8/28/14,0,0,, , , ,
144.85,-1.57,-3.37,5.21,-8.86,267.26,31.43,15:45:45.203,8/28/14,0,0,, , , ,
143.27,-2.17,-5.18,13.72,-25.60,235.52,30.85,15:45:45.406,8/28/14,0,0,, , , ,
141.25,-1.29,-4.08,5.21,-12.80,240.64,30.85,15:45:45.406,8/28/14,0,0,, , , ,
139.42,-0.76,-3.25,1.42,-8.86,223.23,30.85,15:45:45.609,8/28/14,0,0,, , , ,
137.90,-2.31,-4.74,15.62,-26.58,253.95,36.65,15:45:45.796,8/28/14,0,0,, , , ,
136.06,-1.21,-4.33,5.21,-23.63,247.81,30.85,15:45:45.796,8/28/14,0,0,, , , ,
134.27,-0.54,-2.11,6.15,-7.88,260.10,30.85,15:45:46.0,8/28/14,0,0,, , , ,
132.83,-0.23,-3.45,4.26,-17.72,220.16,30.85,15:45:46.203,8/28/14,0,0,, , , ,
131.69,-0.39,-4.44,8.04,-18.71,238.59,32.59,15:45:46.203,8/28/14,0,0,, , , ,
130.76,0.16,-3.87,1.42,-17.72,229.38,30.85,15:45:46.406,8/28/14,0,0,, , , ,
130.29,-0.55,-3.08,5.21,-11.82,244.74,30.85,15:45:46.406,8/28/14,0,0,, , , ,
130.19,-1.28,-4.10,1.42,-18.71,247.81,30.85,15:45:46.593,8/28/14,0,0,, , , ,
130.47,-2.51,-5.06,11.83,-22.65,248.83,34.91,15:45:46.796,8/28/14,0,0,, , , ,
130.44,-1.39,-4.81,1.42,-20.68,246.78,30.85,15:45:46.796,8/28/14,0,0,, , , ,
130.66,-1.24,-4.04,6.15,-8.86,235.52,30.85,15:45:47.0,8/28/14,0,0,, , , ,
131.02,-0.98,-5.01,2.37,-18.71,254.98,30.85,15:45:47.203,8/28/14,0,0,, , , ,
131.71,-1.60,-6.06,15.62,-26.58,268.29,30.85,15:45:47.203,8/28/14,0,0,, , , ,
132.04,-0.40,-4.81,-1.42,-16.74,219.14,30.85,15:45:47.390,8/28/14,0,0,, , , ,
132.80,-1.23,-3.64,10.88,-13.78,240.64,30.85,15:45:47.390,8/28/14,0,0,, , , ,
133.37,-0.61,-3.74,1.42,-21.66,229.38,30.85,15:45:47.609,8/28/14,0,0,, , , ,
133.99,-0.27,-2.89,7.10,-18.71,241.66,30.85,15:45:47.796,8/28/14,0,0,, , , ,
134.56,0.25,-2.12,2.37,-17.72,240.64,30.85,15:45:47.796,8/28/14,0,0,, , , ,
135.31,0.58,-1.83,4.26,-16.74,219.14,30.85,15:45:48.0,8/28/14,0,0,, , , ,
136.09,0.79,-1.28,3.31,-17.72,246.78,30.85,15:45:48.0,8/28/14,0,0,, , , ,
136.97,-0.22,-0.80,4.26,-10.83,258.05,30.27,15:45:48.187,8/28/14,0,0,, , , ,
137.91,-1.38,-1.85,7.10,-18.71,239.62,33.75,15:45:48.406,8/28/14,0,0,, , , ,
138.62,-1.39,-2.12,3.31,-13.78,230.40,30.85,15:45:48.406,8/28/14,0,0,, , , ,
139.02,-1.17,-2.12,0.47,-4.92,204.80,30.85,15:45:48.609,8/28/14,0,0,, , , ,
139.31,-1.39,-3.50,5.21,-15.75,210.94,30.85,15:45:48.796,8/28/14,0,0,, , , ,
139.13,-1.08,-3.46,0.47,-11.82,249.86,31.43,15:45:48.796,8/28/14,0,0,, , , ,
138.91,-1.69,-2.90,3.31,-3.94,251.90,30.85,15:45:48.984,8/28/14,0,0,, , , ,
138.77,-3.23,-5.30,6.15,-19.69,244.74,30.85,15:45:48.984,8/28/14,0,0,, , , ,
138.17,-3.79,-5.53,10.88,-13.78,238.59,30.85,15:45:49.203,8/28/14,0,0,, , , ,
136.70,-2.61,-4.19,-1.42,-4.92,218.11,35.49,15:45:49.406,8/28/14,0,0,, , , ,
134.95,-2.29,-5.00,12.78,-17.72,235.52,30.85,15:45:49.406,8/28/14,0,0,, , , ,
132.53,-0.57,-4.95,3.31,-15.75,247.81,30.85,15:45:49.609,8/28/14,0,0,, , , ,
130.23,-0.06,-3.97,5.21,-6.89,277.50,30.85,15:45:49.609,8/28/14,0,0,, , , ,
128.27,-1.06,-6.07,3.31,-23.63,242.69,33.75,15:45:49.796,8/28/14,0,0,, , , ,
126.46,-2.10,-6.24,8.99,-14.77,245.76,30.85,15:45:50.0,8/28/14,0,0,, , , ,
124.51,-1.91,-5.55,1.42,-11.82,234.50,30.85,15:45:50.0,8/28/14,0,0,, , , ,
122.98,-3.18,-6.07,12.78,-20.68,251.90,30.85,15:45:50.203,8/28/14,0,0,, , , ,
121.14,-3.04,-5.58,7.10,-18.71,264.19,34.91,15:45:50.406,8/28/14,0,0,, , , ,
119.47,-2.33,-5.16,12.78,-12.80,256.00,30.85,15:45:50.406,8/28/14,0,0,, , , ,
117.75,-1.11,-5.96,4.26,-24.62,220.16,30.85,15:45:50.593,8/28/14,0,0,, , , ,
116.35,-0.12,-5.06,8.04,-15.75,230.40,30.85,15:45:50.593,8/28/14,0,0,, , , ,
115.27,1.33,-4.45,1.42,-12.80,234.50,30.85,15:45:50.796,8/28/14,0,0,, , , ,
114.86,0.86,-5.94,8.99,-29.54,241.66,31.43,15:45:51.0,8/28/14,0,0,, , , ,
114.58,0.94,-4.63,4.26,-16.74,224.26,30.85,15:45:51.0,8/28/14,0,0,, , , ,
114.85,1.67,-2.71,-0.47,-5.91,243.71,30.85,15:45:51.203,8/28/14,0,1,, , , ,
115.83,0.25,-4.03,9.94,-28.55,257.02,30.85,15:45:51.203,8/28/14,1,1,4053.0717N, 8226.0625W,20.71,3906.00,5
117.12,-0.13,-3.81,4.26,-24.62,249.86,32.01,15:45:51.390,8/28/14,1,1,4053.0739N, 8226.0634W,20.64,3882.90,5
118.68,-0.31,-1.67,0.47,-11.82,215.04,30.85,15:45:51.609,8/28/14,1,1,4053.0759N, 8226.0664W,20.64,3861.10,5
120.53,-1.13,-0.99,4.26,-16.74,218.11,30.85,15:45:51.609,8/28/14,1,1,4053.0759N, 8226.0664W,20.57,3861.10,5
122.33,-0.63,-0.43,-1.42,-12.80,224.26,30.85,15:45:51.796,8/28/14,1,1,4053.0773N, 8226.0673W,20.57,3845.30,5
124.23,-0.72,-0.79,7.10,-8.86,230.40,33.75,15:45:51.796,8/28/14,1,1,4053.0773N, 8226.0673W,20.59,3845.30,5
126.06,-0.77,-2.38,8.04,-21.66,226.30,30.85,15:45:52.0,8/28/14,1,1,4053.0783N, 8226.0673W,20.64,3832.00,5
127.54,0.84,-1.90,0.47,-10.83,237.57,30.85,15:45:52.187,8/28/14,1,1,4053.0795N, 8226.0683W,20.64,3818.10,5
129.02,0.61,-2.26,8.04,-9.85,256.00,30.85,15:45:52.187,8/28/14,1,1,4053.0795N, 8226.0683W,20.67,3818.10,5
130.46,0.18,-4.32,4.26,-20.68,226.30,36.65,15:45:52.406,8/28/14,1,1,4053.0803N, 8226.0693W,20.74,3804.40,5
131.75,-0.41,-4.22,6.15,-13.78,235.52,30.85,15:45:52.609,8/28/14,1,0,0.0000 , 0.0000 ,20.74,0.00,5
132.75,-0.43,-3.88,1.42,-11.82,226.30,30.85,15:45:52.609,8/28/14,0,0,, , , ,
133.66,-1.62,-4.14,1.42,-17.72,216.06,30.85,15:45:52.796,8/28/14,0,1,, , , ,
134.17,-2.17,-4.17,0.47,-12.80,251.90,32.59,15:45:52.796,8/28/14,1,1,4053.0822N, 8226.0722W,21.01,3775.20,5
134.50,-3.45,-4.93,9.94,-12.80,251.90,30.85,15:45:52.984,8/28/14,1,1,4053.0830N, 8226.0722W,21.19,3763.30,5
134.18,-3.33,-5.85,8.04,-20.68,242.69,30.85,15:45:53.203,8/28/14,1,1,4053.0839N, 8226.0722W,21.19,3752.00,5
133.13,-2.49,-4.79,11.83,-14.77,259.07,30.85,15:45:53.203,8/28/14,1,1,4053.0839N, 8226.0722W,21.44,3752.00,5
131.58,-1.37,-3.65,3.31,-14.77,240.64,34.91,15:45:53.406,8/28/14,1,1,4053.0842N, 8226.0722W,21.44,3740.90,5
129.86,-1.85,-3.66,13.72,-18.71,262.14,30.85,15:45:53.406,8/28/14,1,1,4053.0842N, 8226.0722W,21.78,3740.90,5
127.78,-0.81,-3.25,2.37,-14.77,254.98,30.85,15:45:53.609,8/28/14,1,1,4053.0852N, 8226.0732W,22.29,3726.90,5
125.75,-1.22,-3.01,8.99,-15.75,265.22,30.85,15:45:53.796,8/28/14,1,1,4053.0854N, 8226.0742W,22.29,3716.50,5
123.77,-1.65,-2.98,4.26,-16.74,230.40,35.49,15:45:53.796,8/28/14,1,1,4053.0854N, 8226.0742W,22.40,3716.50,5
121.68,-2.10,-1.71,2.37,-9.85,222.21,30.85,15:45:54.0,8/28/14,1,1,4053.0859N, 8226.0742W,22.64,3706.10,5
119.42,-2.01,-1.20,4.26,-11.82,228.35,30.85,15:45:54.203,8/28/14,1,1,4053.0861N, 8226.0742W,22.64,3697.00,6
117.03,-1.40,-0.92,2.37,-8.86,229.38,30.85,15:45:54.203,8/28/14,1,1,4053.0861N, 8226.0742W,23.20,3697.00,6
114.71,-1.12,-1.56,3.31,-14.77,237.57,33.17,15:45:54.406,8/28/14,1,1,4053.0866N, 8226.0751W,23.20,3685.40,6
112.56,-1.74,-2.01,10.88,-18.71,235.52,31.43,15:45:54.406,8/28/14,1,1,4053.0866N, 8226.0751W,23.59,3685.40,6
110.34,-0.75,-0.63,1.42,-8.86,247.81,30.85,15:45:54.593,8/28/14,1,1,4053.0871N, 8226.0751W,23.96,3675.20,6
108.50,-0.95,-0.36,3.31,-4.92,230.40,30.85,15:45:54.796,8/28/14,1,1,4053.0871N, 8226.0751W,23.96,3666.50,6
107.19,-1.31,-2.00,2.37,-18.71,224.26,35.49,15:45:54.796,8/28/14,1,1,4053.0871N, 8226.0751W,24.17,3666.50,6
106.25,-2.00,-1.95,3.31,-7.88,226.30,30.85,15:45:55.0,8/28/14,1,1,4053.0874N, 8226.0751W,24.17,3658.60,6
105.55,-1.94,-1.61,-3.31,-7.88,237.57,30.85,15:45:55.0,8/28/14,1,1,4053.0874N, 8226.0751W,24.33,3658.60,6
105.31,-3.10,-2.58,6.15,-19.69,270.34,30.85,15:45:55.203,8/28/14,1,1,4053.0874N, 8226.0742W,24.52,3652.30,6
105.15,-3.16,-2.37,1.42,-14.77,237.57,35.49,15:45:55.390,8/28/14,1,1,4053.0874N, 8226.0742W,24.52,3646.30,6
105.00,-2.92,-1.69,0.47,-7.88,234.50,33.75,15:45:55.390,8/28/14,1,1,4053.0874N, 8226.0742W,24.69,3646.30,6
105.05,-2.41,-2.59,2.37,-18.71,260.10,30.85,15:45:55.609,8/28/14,1,1,4053.0871N, 8226.0732W,24.92,3640.80,6
105.18,-2.25,-2.63,1.42,-18.71,221.18,30.85,15:45:55.796,8/28/14,1,0,0.0000 , 0.0000 ,24.92,0.00,7
105.33,-1.32,-0.91,-2.37,-6.89,271.36,31.43,15:45:55.796,8/28/14,0,0,, , , ,
106.04,-2.07,-1.91,0.47,-14.77,251.90,31.43,15:45:56.0,8/28/14,0,0,, , , ,
107.20,-3.49,-2.99,8.04,-24.62,248.83,30.85,15:45:56.187,8/28/14,0,0,, , , ,
108.02,-2.56,-0.63,-2.37,-2.95,266.24,30.85,15:45:56.187,8/28/14,0,0,, , , ,
109.14,-2.89,-1.40,3.31,-10.83,249.86,11.13,15:45:56.406,8/28/14,0,0,, , , ,
110.51,-3.01,-4.22,5.21,-26.58,236.54,26.21,15:45:56.406,8/28/14,0,0,, , , ,
111.61,-1.64,-3.10,-1.42,-11.82,248.83,7.65,15:45:56.609,8/28/14,0,0,, , , ,
112.85,-1.35,-1.57,-3.31,-7.88,244.74,11.71,15:45:56.796,8/28/14,0,0,, , , ,
114.51,-3.19,-2.67,7.10,-19.69,239.62,8.23,15:45:56.796,8/28/14,0,0,, , , ,
115.85,-2.65,-2.06,0.47,-13.78,263.17,9.97,15:45:56.984,8/28/14,0,0,, , , ,
117.22,-2.59,-1.57,2.37,-10.83,257.02,9.97,15:45:57.203,8/28/14,0,0,, , , ,
118.54,-2.57,-2.28,4.26,-19.69,244.74,11.13,15:45:57.203,8/28/14,0,0,, , , ,
119.66,-1.82,-1.67,3.31,-8.86,240.64,11.71,15:45:57.406,8/28/14,0,0,, , , ,
120.67,-0.76,-1.08,-1.42,-6.89,239.62,6.49,15:45:57.609,8/28/14,0,0,, , , ,
121.96,-0.74,-2.38,3.31,-11.82,253.95,11.71,15:45:57.609,8/28/14,0,0,, , , ,
123.51,-1.22,-3.90,0.47,-20.68,242.69,30.85,15:45:57.796,8/28/14,0,0,, , , ,
125.15,-1.93,-3.35,1.42,-14.77,261.12,30.85,15:45:57.796,8/28/14,0,0,, , , ,
126.76,-2.39,-2.63,-1.42,-10.83,256.00,30.85,15:45:58.0,8/28/14,0,0,, , , ,
128.65,-3.68,-3.41,2.37,-13.78,250.88,35.49,15:45:58.203,8/28/14,0,0,, , , ,
130.51,-4.24,-4.32,7.10,-18.71,254.98,30.85,15:45:58.203,8/28/14,0,0,, , , ,
131.76,-3.38,-3.66,0.47,-9.85,254.98,30.85,15:45:58.406,8/28/14,0,0,, , , ,
132.83,-2.86,-4.13,4.26,-7.88,254.98,30.85,15:45:58.406,8/28/14,0,0,, , , ,
133.78,-3.06,-5.70,6.15,-22.65,254.98,33.17,15:45:58.593,8/28/14,0,0,, , , ,
134.22,-2.74,-5.02,6.15,-14.77,266.24,30.85,15:45:58.796,8/28/14,0,0,, , , ,
134.21,-2.44,-4.22,4.26,-14.77,247.81,30.85,15:45:58.796,8/28/14,0,0,, , , ,
133.90,-2.45,-4.36,8.99,-20.68,259.07,30.85,15:45:59.0,8/28/14,0,0,, , , ,
133.29,-1.76,-3.97,2.37,-11.82,266.24,35.49,15:45:59.203,8/28/14,0,0,, , , ,
132.75,-2.04,-4.84,10.88,-21.66,258.05,32.01,15:45:59.203,8/28/14,0,0,, , , ,
131.96,-1.54,-5.06,7.10,-22.65,248.83,30.85,15:45:59.390,8/28/14,0,0,, , , ,
130.99,-0.46,-3.31,2.37,-7.88,256.00,30.85,15:45:59.390,8/28/14,0,0,, , , ,
130.51,-0.57,-4.64,6.15,-19.69,246.78,33.75,15:45:59.609,8/28/14,0,0,, , , ,
130.34,-1.32,-6.62,7.10,-24.62,247.81,31.43,15:45:59.796,8/28/14,0,0,, , , ,
130.40,-1.47,-5.62,0.47,-8.86,239.62,30.85,15:45:59.796,8/28/14,0,0,, , , ,
130.93,-2.44,-6.42,8.04,-21.66,244.74,30.85,15:46:0.0,8/28/14,0,0,, , , ,
131.34,-2.53,-6.42,8.04,-20.68,228.35,31.43,15:46:0.0,8/28/14,0,0,, , , ,
131.50,-1.09,-5.00,4.26,-11.82,249.86,32.01,15:46:0.187,8/28/14,0,0,, , , ,
131.75,-0.53,-5.43,8.04,-18.71,258.05,30.85,15:46:0.406,8/28/14,0,0,, , , ,
132.27,-0.26,-6.47,7.10,-24.62,258.05,30.85,15:46:0.406,8/28/14,0,0,, , , ,
