yaw, pitch, roll, rawX (accel), rawY, rawZ, tmp36, Time (HH:MM:SS), Date (MM/DD/YY),GPS Fix, Fix Quality, Latitude, Longitude, knots, altitude, # of satellite fixes
130.42,-4.71,0.00,-172.23,-2.11,-0.89,0.00,14:57:3.921,0/0/0,0,0,, , , ,
-168.47,-2.72,-0.65,13.72,-6.89,254.98,19.83,14:57:4.109,0/0/0,0,0,, , , ,
-165.29,-3.27,-0.65,13.72,-6.89,254.98,20.41,14:57:4.312,8/28/14,0,0,, , , ,
-162.62,-3.63,-0.78,14.67,-6.89,252.93,20.41,14:57:4.312,8/28/14,0,0,, , , ,
-160.03,-3.83,-0.97,12.78,-5.91,249.86,20.41,14:57:4.515,8/28/14,0,0,, , , ,
-157.52,-3.99,-1.20,12.78,-6.89,249.86,20.41,14:57:4.515,8/28/14,0,0,, , , ,
-155.10,-4.14,-1.44,13.72,-6.89,244.74,20.41,14:57:4.718,8/28/14,0,0,, , , ,
-152.82,-4.25,-1.72,13.72,-6.89,243.71,20.41,14:57:4.718,8/28/14,0,0,, , , ,
-150.64,-4.40,-1.96,12.78,-6.89,238.59,20.41,14:57:4.921,8/28/14,0,0,, , , ,
-148.63,-4.40,-2.22,11.83,-6.89,234.50,22.73,14:57:5.109,8/28/14,0,0,, , , ,
-146.79,-4.38,-2.43,12.78,-6.89,229.38,16.35,14:57:5.109,8/28/14,0,0,, , , ,
-145.15,-4.34,-2.50,12.78,-5.91,224.26,20.41,14:57:5.312,8/28/14,0,0,, , , ,
-143.74,-4.29,-2.55,11.83,-5.91,219.14,20.99,14:57:5.312,8/28/14,0,0,, , , ,
-142.54,-4.25,-2.66,10.88,-5.91,215.04,22.15,14:57:5.515,8/28/14,0,0,, , , ,
-141.53,-4.12,-2.75,11.83,-5.91,209.92,-55.00,14:57:5.718,8/28/14,0,0,, , , ,
-140.73,-3.98,-2.82,11.83,-4.92,209.92,-55.00,14:57:5.718,8/28/14,0,0,, , , ,
-140.10,-3.79,-2.88,10.88,-5.91,205.82,-55.00,14:57:5.921,8/28/14,0,0,, , , ,
-139.62,-3.55,-2.98,11.83,-5.91,205.82,-55.00,14:57:6.109,8/28/14,0,0,, , , ,
-139.27,-3.30,-2.92,11.83,-5.91,205.82,-55.00,14:57:6.109,8/28/14,0,0,, , , ,
-139.02,-3.03,-2.75,11.83,-5.91,207.87,-55.00,14:57:6.312,8/28/14,0,0,, , , ,
-138.82,-2.90,-2.37,12.78,-6.89,214.02,20.99,14:57:6.312,8/28/14,0,0,, , , ,
-138.66,-2.83,-1.94,10.88,-6.89,218.11,20.99,14:57:6.515,8/28/14,0,0,, , , ,
-138.51,-2.87,-1.47,12.78,-6.89,224.26,20.99,14:57:6.718,8/28/14,0,0,, , , ,
-138.38,-2.98,-1.06,12.78,-5.91,232.45,20.99,14:57:6.718,8/28/14,0,0,, , , ,
-138.23,-3.24,-0.73,13.72,-6.89,239.62,23.31,14:57:6.921,8/28/14,0,0,, , , ,
-138.09,-3.46,-0.55,11.83,-7.88,244.74,20.99,14:57:7.109,8/28/14,0,0,, , , ,
-137.95,-3.74,-0.44,13.72,-6.89,248.83,21.57,14:57:7.109,8/28/14,0,0,, , , ,
-137.81,-4.03,-0.42,12.78,-6.89,249.86,20.99,14:57:7.312,8/28/14,0,0,, , , ,
-137.65,-4.39,-0.40,13.72,-6.89,253.95,22.15,14:57:7.312,8/28/14,0,0,, , , ,
-137.45,-4.76,-0.48,12.78,-6.89,257.02,16.93,14:57:7.515,8/28/14,0,0,, , , ,
-137.22,-5.13,-0.70,11.83,-7.88,261.12,21.57,14:57:7.718,8/28/14,0,0,, , , ,
-136.93,-5.41,-0.99,12.78,-6.89,264.19,21.57,14:57:7.718,8/28/14,0,0,, , , ,
-136.57,-5.66,-1.31,12.78,-6.89,265.22,23.31,14:57:7.921,8/28/14,0,0,, , , ,
-136.16,-5.81,-1.68,14.67,-7.88,265.22,21.57,14:57:7.921,8/28/14,0,0,, , , ,
-135.68,-5.84,-2.00,13.72,-7.88,267.26,21.57,14:57:8.109,8/28/14,0,0,, , , ,
-135.16,-5.73,-2.29,13.72,-7.88,268.29,21.57,14:57:8.312,8/28/14,0,0,, , , ,
-134.58,-5.63,-2.47,13.72,-6.89,267.26,21.57,14:57:8.312,8/28/14,0,0,, , , ,
-133.93,-5.43,-2.83,12.78,-6.89,264.19,21.57,14:57:8.515,8/28/14,0,0,, , , ,
-133.23,-5.15,-3.18,13.72,-6.89,262.14,21.57,14:57:8.718,8/28/14,0,0,, , , ,
-132.51,-4.82,-3.47,12.78,-6.89,261.12,23.31,14:57:8.718,8/28/14,0,0,, , , ,
-131.77,-4.50,-3.62,13.72,-6.89,260.10,22.15,14:57:8.921,8/28/14,0,0,, , , ,
-131.05,-4.12,-3.65,12.78,-5.91,258.05,21.57,14:57:8.921,8/28/14,0,0,, , , ,
-130.31,-3.75,-3.61,12.78,-6.89,254.98,21.57,14:57:9.109,8/28/14,0,0,, , , ,
-129.54,-3.60,-3.55,12.78,-6.89,252.93,21.57,14:57:9.312,8/28/14,0,0,, , , ,
-128.75,-3.59,-3.38,13.72,-6.89,251.90,21.57,14:57:9.312,8/28/14,0,0,, , , ,
-128.02,-3.37,-3.13,13.72,-5.91,250.88,21.57,14:57:9.515,8/28/14,0,0,, , , ,
-127.27,-3.32,-2.89,13.72,-5.91,248.83,21.57,14:57:9.515,8/28/14,0,0,, , , ,
-126.56,-3.12,-2.81,12.78,-6.89,247.81,23.31,14:57:9.718,8/28/14,0,0,, , , ,
-125.87,-3.15,-2.66,13.72,-5.91,245.76,21.57,14:57:9.921,8/28/14,0,0,, , , ,
-125.24,-3.05,-2.58,13.72,-5.91,245.76,21.57,14:57:9.921,8/28/14,0,0,, , , ,
-124.58,-3.08,-2.54,12.78,-4.92,242.69,21.57,14:57:10.109,8/28/14,0,0,, , , ,
-123.93,-3.20,-2.61,13.72,-6.89,238.59,23.31,14:57:10.312,8/28/14,0,0,, , , ,
-123.28,-3.32,-2.75,11.83,-6.89,234.50,21.57,14:57:10.312,8/28/14,0,0,, , , ,
-122.61,-3.45,-2.99,11.83,-5.91,232.45,21.57,14:57:10.515,8/28/14,0,0,, , , ,
-121.94,-3.46,-3.23,11.83,-6.89,228.35,21.57,14:57:10.515,8/28/14,0,0,, , , ,
-121.29,-3.51,-3.30,12.78,-5.91,225.28,21.57,14:57:10.718,8/28/14,0,0,, , , ,
-120.68,-3.42,-3.44,10.88,-6.89,221.18,21.57,14:57:10.921,8/28/14,0,0,, , , ,
-120.07,-3.33,-3.60,11.83,-5.91,219.14,21.57,14:57:10.921,8/28/14,0,0,, , , ,
-119.53,-3.11,-3.65,11.83,-6.89,214.02,23.31,14:57:11.156,8/28/14,0,0,, , , ,
-119.04,-2.86,-3.57,11.83,-5.91,208.90,20.99,14:57:11.156,8/28/14,0,0,, , , ,
-118.55,-2.63,-3.57,10.88,-5.91,204.80,20.99,14:57:11.343,8/28/14,0,0,, , , ,
-118.05,-2.45,-3.66,10.88,-4.92,203.78,20.99,14:57:11.546,8/28/14,0,0,, , , ,
-117.55,-2.20,-3.61,10.88,-5.91,204.80,20.99,14:57:11.546,8/28/14,0,0,, , , ,
-117.00,-2.11,-3.51,10.88,-5.91,211.97,20.99,14:57:11.765,8/28/14,0,0,, , , ,
-116.37,-2.06,-3.47,10.88,-5.91,214.02,20.99,14:57:11.765,8/28/14,0,0,, , , ,
-115.64,-2.22,-3.45,12.78,-6.89,223.23,20.99,14:57:11.953,8/28/14,1,1,4102.1508N, 8237.7285W,6.78,24599.00,6
-114.83,-2.29,-3.46,10.88,-5.91,227.33,23.31,14:57:12.140,8/28/14,1,1,4102.1469N, 8237.7314W,6.78,24601.50,6
-113.90,-2.38,-3.46,11.83,-4.92,232.45,20.99,14:57:12.140,8/28/14,1,1,4102.1469N, 8237.7314W,6.73,24601.50,6
-112.87,-2.42,-3.42,11.83,-6.89,235.52,20.41,14:57:12.343,8/28/14,1,1,4102.1464N, 8237.7343W,6.73,24603.40,6
-111.74,-2.42,-3.45,12.78,-5.91,237.57,20.41,14:57:12.343,8/28/14,1,1,4102.1464N, 8237.7343W,6.62,24603.40,6
-110.53,-2.31,-3.48,13.72,-5.91,242.69,20.41,14:57:12.531,8/28/14,1,1,4102.1464N, 8237.7333W,6.46,24604.00,6
-109.30,-2.11,-3.49,12.78,-6.89,242.69,20.41,14:57:12.734,8/28/14,1,1,4102.1459N, 8237.7333W,6.46,24604.90,6
-108.03,-1.90,-3.31,14.67,-5.91,244.74,20.41,14:57:12.734,8/28/14,1,1,4102.1459N, 8237.7333W,6.31,24604.90,6
-106.76,-1.60,-3.13,13.72,-5.91,244.74,20.41,14:57:12.937,8/28/14,1,1,4102.1464N, 8237.7333W,6.21,24605.80,6
-105.47,-1.48,-3.03,14.67,-5.91,245.76,20.41,14:57:13.140,8/28/14,1,1,4102.1469N, 8237.7324W,6.21,24606.60,6
-104.22,-1.32,-2.80,14.67,-6.89,249.86,20.41,14:57:13.140,8/28/14,1,1,4102.1469N, 8237.7324W,6.15,24606.60,6
-102.99,-1.39,-2.55,16.56,-5.91,254.98,20.41,14:57:13.343,8/28/14,1,1,4102.1469N, 8237.7324W,6.15,24607.40,6
-101.81,-1.44,-2.45,14.67,-6.89,254.98,23.31,14:57:13.343,8/28/14,1,1,4102.1469N, 8237.7324W,6.07,24607.40,6
-100.74,-1.46,-2.24,15.62,-6.89,257.02,20.41,14:57:13.546,8/28/14,1,1,4102.1479N, 8237.7324W,5.91,24608.30,6
-99.78,-1.48,-1.93,14.67,-7.88,260.10,19.83,14:57:13.734,8/28/14,1,1,4102.1489N, 8237.7324W,5.91,24609.30,6
-98.92,-1.63,-1.67,15.62,-6.89,262.14,20.41,14:57:13.734,8/28/14,1,1,4102.1489N, 8237.7324W,5.86,24609.30,6
-98.16,-1.82,-1.30,16.56,-6.89,264.19,24.47,14:57:13.953,8/28/14,1,1,4102.1489N, 8237.7324W,5.85,24609.30,6
-97.54,-2.05,-1.05,16.56,-6.89,265.22,20.41,14:57:14.140,8/28/14,1,1,4102.1489N, 8237.7324W,5.85,24609.20,6
-97.00,-2.25,-0.95,15.62,-7.88,265.22,20.41,14:57:14.140,8/28/14,1,1,4102.1489N, 8237.7324W,5.76,24609.20,6
-96.59,-2.24,-0.88,12.78,-7.88,262.14,20.41,14:57:14.343,8/28/14,1,1,4102.1494N, 8237.7333W,5.76,24608.90,6
-96.28,-2.32,-0.79,15.62,-6.89,262.14,20.41,14:57:14.343,8/28/14,1,1,4102.1494N, 8237.7333W,5.78,24608.90,6
-96.06,-2.37,-0.74,13.72,-7.88,261.12,19.83,14:57:14.546,8/28/14,1,1,4102.1494N, 8237.7343W,5.75,24608.50,6
-95.89,-2.64,-0.72,13.72,-7.88,260.10,19.83,14:57:14.750,8/28/14,1,1,4102.1494N, 8237.7343W,5.75,24609.00,6
-95.77,-2.89,-0.77,13.72,-7.88,258.05,23.31,14:57:14.750,8/28/14,1,1,4102.1494N, 8237.7343W,5.68,24609.00,6
-95.67,-3.25,-0.93,14.67,-6.89,257.02,19.83,14:57:14.937,8/28/14,1,1,4102.1499N, 8237.7333W,5.68,24609.90,6
-95.61,-3.46,-1.11,13.72,-7.88,253.95,19.83,14:57:14.937,8/28/14,1,1,4102.1499N, 8237.7333W,5.58,24609.90,6
-95.58,-3.50,-1.36,13.72,-6.89,252.93,20.41,14:57:15.140,8/28/14,1,1,4102.1503N, 8237.7333W,5.50,24610.90,6
-95.55,-3.53,-1.57,12.78,-7.88,247.81,21.57,14:57:15.343,8/28/14,1,1,4102.1503N, 8237.7333W,5.50,24611.60,6
-95.53,-3.54,-1.67,14.67,-7.88,244.74,19.83,14:57:15.343,8/28/14,1,1,4102.1503N, 8237.7333W,5.41,24611.60,6
-95.51,-3.45,-1.66,14.67,-5.91,243.71,19.83,14:57:15.546,8/28/14,1,1,4102.1503N, 8237.7324W,5.30,24612.30,6
-95.40,-3.36,-1.77,12.78,-5.91,242.69,24.47,14:57:15.734,8/28/14,1,1,4102.1503N, 8237.7324W,5.30,24613.30,6
-95.18,-3.48,-2.05,12.78,-6.89,236.54,19.83,14:57:15.734,8/28/14,1,1,4102.1503N, 8237.7324W,5.18,24613.30,6
-94.87,-3.30,-2.17,11.83,-6.89,231.42,19.83,14:57:15.937,8/28/14,1,1,4102.1503N, 8237.7324W,5.18,24614.40,6
-94.35,-3.31,-2.37,12.78,-5.91,227.33,19.83,14:57:15.937,8/28/14,1,1,4102.1503N, 8237.7324W,5.07,24614.40,6
-93.60,-3.18,-2.73,12.78,-5.91,224.26,23.31,14:57:16.140,8/28/14,1,1,4102.1508N, 8237.7324W,4.92,24615.70,6
-92.58,-3.17,-2.89,12.78,-6.89,221.18,19.83,14:57:16.359,8/28/14,1,1,4102.1508N, 8237.7324W,4.92,24617.00,6
-91.26,-2.94,-2.88,11.83,-4.92,216.06,19.83,14:57:16.359,8/28/14,1,1,4102.1508N, 8237.7324W,4.77,24617.00,6
-89.47,-2.86,-2.90,11.83,-6.89,214.02,19.83,14:57:16.546,8/28/14,1,1,4102.1503N, 8237.7324W,4.66,24618.50,6
-87.22,-2.83,-2.90,12.78,-6.89,212.99,24.47,14:57:16.750,8/28/14,1,1,4102.1503N, 8237.7333W,4.66,24620.20,6
-84.49,-2.73,-2.71,11.83,-5.91,214.02,19.83,14:57:16.750,8/28/14,1,1,4102.1503N, 8237.7333W,4.52,24620.20,6
-81.18,-2.64,-2.55,12.78,-5.91,215.04,19.83,14:57:16.937,8/28/14,1,1,4102.1503N, 8237.7324W,4.52,24621.50,6
-77.26,-2.54,-2.48,12.78,-6.89,216.06,23.31,14:57:16.937,8/28/14,1,1,4102.1503N, 8237.7324W,4.09,24621.50,6
-72.75,-2.48,-2.18,13.72,-5.91,219.14,19.83,14:57:17.156,8/28/14,1,1,4102.1503N, 8237.7324W,3.74,24622.70,6
-67.51,-2.27,-1.82,12.78,-5.91,222.21,19.83,14:57:17.343,8/28/14,1,1,4102.1508N, 8237.7314W,3.74,24624.00,6
-61.43,-2.28,-1.40,13.72,-4.92,227.33,19.83,14:57:17.343,8/28/14,1,1,4102.1508N, 8237.7314W,3.71,24624.00,6
-54.48,-2.37,-1.05,12.78,-6.89,229.38,15.77,14:57:17.546,8/28/14,1,1,4102.1508N, 8237.7314W,3.82,24625.00,6
-46.54,-2.67,-0.71,12.78,-6.89,230.40,19.83,14:57:17.734,8/28/14,1,1,4102.1513N, 8237.7314W,3.82,24626.00,6
-37.49,-2.93,-0.58,12.78,-5.91,234.50,19.83,14:57:17.734,8/28/14,1,1,4102.1513N, 8237.7314W,3.81,24626.00,6
-27.20,-3.42,-0.56,13.72,-6.89,236.54,23.31,14:57:17.953,8/28/14,1,1,4102.1523N, 8237.7314W,3.81,24627.50,6
-15.60,-3.81,-0.59,12.78,-6.89,236.54,19.83,14:57:17.953,8/28/14,1,1,4102.1523N, 8237.7314W,3.87,24627.50,6
-2.78,-4.19,-0.58,12.78,-6.89,238.59,19.83,14:57:18.140,8/28/14,1,1,4102.1528N, 8237.7304W,4.06,24628.40,6
11.44,-4.46,-0.67,12.78,-6.89,241.66,19.83,14:57:18.359,8/28/14,1,1,4102.1533N, 8237.7294W,4.06,24629.40,6
26.74,-4.74,-0.75,14.67,-6.89,243.71,19.83,14:57:18.359,8/28/14,1,1,4102.1533N, 8237.7294W,4.44,24629.40,6
42.75,-4.99,-0.84,13.72,-6.89,249.86,19.25,14:57:18.546,8/28/14,1,1,4102.1533N, 8237.7294W,4.44,24630.70,6
58.97,-4.99,-1.06,14.67,-6.89,251.90,19.25,14:57:18.546,8/28/14,1,1,4102.1533N, 8237.7294W,4.84,24630.70,6
74.83,-5.00,-1.35,14.67,-6.89,251.90,23.31,14:57:18.750,8/28/14,1,1,4102.1542N, 8237.7285W,4.94,24632.00,6
89.83,-4.91,-1.69,13.72,-5.91,253.95,19.83,14:57:18.937,8/28/14,1,1,4102.1547N, 8237.7285W,4.94,24633.30,6
103.63,-4.80,-2.01,14.67,-7.88,257.02,19.25,14:57:18.937,8/28/14,1,1,4102.1547N, 8237.7285W,5.16,24633.30,6
116.06,-4.67,-2.32,14.67,-5.91,257.02,21.57,14:57:19.156,8/28/14,1,1,4102.1552N, 8237.7285W,5.42,24634.50,6
126.97,-4.44,-2.53,13.72,-6.89,256.00,20.99,14:57:19.343,8/28/14,1,1,4102.1557N, 8237.7294W,5.42,24635.90,6
136.66,-4.32,-2.76,14.67,-5.91,256.00,19.25,14:57:19.343,8/28/14,1,1,4102.1557N, 8237.7294W,5.66,24635.90,6
145.16,-4.25,-2.92,15.62,-7.88,258.05,19.25,14:57:19.546,8/28/14,1,1,4102.1562N, 8237.7285W,5.66,24638.40,6
152.54,-4.00,-2.86,14.67,-5.91,258.05,23.31,14:57:19.546,8/28/14,1,1,4102.1562N, 8237.7285W,5.95,24638.40,6
158.98,-3.67,-2.95,13.72,-6.89,257.02,19.83,14:57:19.734,8/28/14,1,1,4102.1567N, 8237.7285W,6.15,24640.90,6
164.66,-3.52,-3.12,15.62,-6.89,256.00,15.19,14:57:19.953,8/28/14,1,1,4102.1577N, 8237.7294W,6.15,24641.30,6
169.61,-3.19,-2.96,16.56,-5.91,258.05,19.83,14:57:19.953,8/28/14,1,1,4102.1577N, 8237.7294W,6.45,24641.30,6
173.92,-2.81,-2.64,12.78,-5.91,257.02,20.41,14:57:20.171,8/28/14,1,1,4102.1577N, 8237.7294W,6.79,24643.70,6
177.77,-2.65,-2.64,13.72,-6.89,257.02,19.25,14:57:20.359,8/28/14,1,1,4102.1591N, 8237.7285W,6.79,24649.20,6
-178.80,-2.60,-2.51,13.72,-6.89,250.88,19.25,14:57:20.359,8/28/14,1,1,4102.1591N, 8237.7285W,7.17,24649.20,6
-175.73,-2.53,-2.19,14.67,-6.89,250.88,23.31,14:57:20.562,8/28/14,1,1,4102.1596N, 8237.7285W,7.17,24650.00,6
-172.98,-2.42,-2.04,13.72,-5.91,247.81,19.25,14:57:20.562,8/28/14,1,1,4102.1596N, 8237.7285W,7.56,24650.00,6
-170.46,-2.49,-2.08,13.72,-7.88,244.74,19.25,14:57:20.750,8/28/14,1,1,4102.1596N, 8237.7294W,7.72,24650.70,6
-168.19,-2.61,-1.85,13.72,-6.89,241.66,19.25,14:57:20.968,8/28/14,1,1,4102.1601N, 8237.7294W,7.72,24651.60,6
-166.20,-2.26,-1.46,12.78,-6.89,234.50,20.99,14:57:20.968,8/28/14,1,1,4102.1601N, 8237.7294W,7.91,24651.60,6
-164.38,-2.41,-1.23,13.72,-5.91,229.38,19.25,14:57:21.156,8/28/14,1,1,4102.1606N, 8237.7304W,7.91,24652.60,6
-162.77,-2.28,-1.09,11.83,-6.89,225.28,19.25,14:57:21.359,8/28/14,1,1,4102.1606N, 8237.7304W,8.03,24653.60,6
-161.29,-2.48,-0.75,13.72,-6.89,220.16,24.47,14:57:21.359,8/28/14,1,1,4102.1606N, 8237.7304W,7.98,24653.60,6
-159.98,-2.37,-0.67,10.88,-6.89,214.02,19.25,14:57:21.546,8/28/14,1,1,4102.1616N, 8237.7314W,7.98,24654.60,6
-158.76,-2.61,-0.66,13.72,-4.92,214.02,19.25,14:57:21.546,8/28/14,1,1,4102.1616N, 8237.7314W,7.96,24654.60,6
-157.70,-2.71,-0.65,11.83,-5.91,209.92,19.83,14:57:21.765,8/28/14,1,1,4102.1616N, 8237.7314W,8.01,24655.80,7
-156.79,-2.77,-0.57,11.83,-5.91,209.92,21.57,14:57:21.953,8/28/14,1,1,4102.1616N, 8237.7314W,8.01,24657.20,7
-155.98,-3.12,-0.70,11.83,-5.91,207.87,19.25,14:57:21.953,8/28/14,1,1,4102.1616N, 8237.7314W,7.96,24657.20,7
-155.30,-3.35,-0.88,11.83,-5.91,208.90,19.25,14:57:22.171,8/28/14,1,1,4102.1616N, 8237.7314W,7.96,24658.00,7
-154.75,-3.67,-0.91,10.88,-6.89,217.09,19.25,14:57:22.171,8/28/14,1,1,4102.1616N, 8237.7314W,7.88,24658.00,7
-154.34,-3.87,-1.29,12.78,-5.91,225.28,19.25,14:57:22.359,8/28/14,1,1,4102.1621N, 8237.7314W,7.60,24658.90,7
-154.00,-4.05,-1.84,13.72,-5.91,230.40,19.25,14:57:22.562,8/28/14,1,1,4102.1621N, 8237.7314W,7.60,24659.70,7
-153.84,-3.99,-2.20,14.67,-6.89,239.62,19.25,14:57:22.562,8/28/14,1,1,4102.1621N, 8237.7314W,7.40,24659.70,7
-153.86,-3.77,-2.50,13.72,-5.91,244.74,19.83,14:57:22.750,8/28/14,1,1,4102.1621N, 8237.7324W,7.26,24660.20,7
-154.00,-3.62,-2.94,14.67,-6.89,248.83,19.25,14:57:22.968,8/28/14,1,1,4102.1621N, 8237.7324W,7.26,24660.60,7
-154.32,-3.24,-3.14,15.62,-5.91,250.88,19.25,14:57:22.968,8/28/14,1,1,4102.1621N, 8237.7324W,7.11,24660.60,7
-154.78,-2.90,-3.12,14.67,-5.91,251.90,22.15,14:57:23.156,8/28/14,1,1,4102.1625N, 8237.7333W,7.11,24660.90,7
-155.32,-2.66,-3.22,15.62,-7.88,254.98,19.25,14:57:23.156,8/28/14,1,1,4102.1625N, 8237.7333W,7.12,24660.90,7
-155.93,-2.47,-3.32,15.62,-5.91,254.98,19.25,14:57:23.359,8/28/14,1,1,4102.1630N, 8237.7333W,7.14,24661.30,7
-156.65,-2.29,-3.10,15.62,-6.89,253.95,19.25,14:57:23.546,8/28/14,1,1,4102.1630N, 8237.7343W,7.14,24661.80,7
-157.39,-2.07,-3.04,14.67,-6.89,256.00,21.57,14:57:23.546,8/28/14,1,1,4102.1630N, 8237.7343W,7.22,24661.80,7
-158.15,-2.09,-2.95,14.67,-6.89,256.00,19.25,14:57:23.765,8/28/14,1,1,4102.1640N, 8237.7353W,7.30,24662.20,7
-158.98,-1.84,-2.57,14.67,-6.89,259.07,19.25,14:57:23.953,8/28/14,1,1,4102.1640N, 8237.7353W,7.30,24662.60,7
-159.78,-1.82,-2.18,18.45,-4.92,261.12,19.25,14:57:23.953,8/28/14,1,1,4102.1640N, 8237.7353W,7.33,24662.60,7
-160.57,-1.82,-1.87,15.62,-7.88,260.10,23.89,14:57:24.171,8/28/14,1,1,4102.1645N, 8237.7353W,7.33,24663.00,7
-161.60,-1.86,-1.38,15.62,-7.88,261.12,19.25,14:57:24.171,8/28/14,1,1,4102.1645N, 8237.7353W,7.33,24663.00,7
-162.51,-1.84,-1.17,15.62,-6.89,261.12,19.25,14:57:24.359,8/28/14,1,1,4102.1650N, 8237.7353W,7.17,24663.00,7
-163.26,-1.92,-0.91,14.67,-6.89,257.02,25.05,14:57:24.562,8/28/14,1,1,4102.1655N, 8237.7363W,7.05,24663.00,7
-163.91,-2.09,-0.58,15.62,-6.89,259.07,19.25,14:57:24.750,8/28/14,1,1,4102.1655N, 8237.7363W,6.97,24663.00,7
-164.11,-2.25,-0.53,15.62,-5.91,254.98,19.25,14:57:24.968,8/28/14,1,1,4102.1660N, 8237.7373W,6.80,24664.30,7
-164.19,-2.47,-0.30,14.67,-6.89,251.90,19.25,14:57:25.156,8/28/14,1,1,4102.1665N, 8237.7373W,6.80,24664.60,7
-164.14,-2.56,-0.29,13.72,-6.89,250.88,19.25,14:57:25.156,8/28/14,1,1,4102.1665N, 8237.7373W,6.60,24664.60,7
-163.92,-2.82,-0.45,14.67,-6.89,250.88,19.25,14:57:25.359,8/28/14,1,1,4102.1665N, 8237.7373W,6.60,24664.70,7
-163.62,-2.92,-0.35,14.67,-6.89,246.78,19.83,14:57:25.359,8/28/14,1,1,4102.1665N, 8237.7373W,6.40,24664.70,7
-163.21,-3.03,-0.35,13.72,-6.89,243.71,19.25,14:57:25.546,8/28/14,1,1,4102.1665N, 8237.7382W,6.17,24664.20,7
-162.67,-3.21,-0.54,13.72,-7.88,240.64,19.25,14:57:25.765,8/28/14,1,1,4102.1665N, 8237.7382W,6.17,24663.90,7
-162.07,-3.28,-0.56,12.78,-6.89,238.59,23.31,14:57:25.765,8/28/14,1,1,4102.1665N, 8237.7382W,6.02,24663.90,7
-161.41,-3.37,-0.57,13.72,-5.91,236.54,19.25,14:57:25.953,8/28/14,1,1,4102.1665N, 8237.7382W,6.02,24663.80,7
-160.69,-3.50,-0.78,12.78,-6.89,230.40,19.25,14:57:25.953,8/28/14,1,1,4102.1665N, 8237.7382W,5.88,24663.80,7
-159.93,-3.76,-0.94,13.72,-6.89,227.33,19.25,14:57:26.171,8/28/14,1,1,4102.1665N, 8237.7392W,5.83,24663.10,7
-159.19,-3.72,-0.98,11.83,-6.89,223.23,24.47,14:57:26.359,8/28/14,1,1,4102.1665N, 8237.7392W,5.83,24662.90,8
-158.45,-3.85,-1.11,13.72,-6.89,222.21,19.25,14:57:26.359,8/28/14,1,1,4102.1665N, 8237.7392W,5.78,24662.90,8
-157.74,-3.95,-1.27,11.83,-6.89,214.02,19.25,14:57:26.562,8/28/14,1,1,4102.1669N, 8237.7392W,5.76,24662.70,8
-157.10,-3.99,-1.25,11.83,-6.89,210.94,22.73,14:57:26.750,8/28/14,1,1,4102.1669N, 8237.7392W,5.76,24662.60,8
-156.56,-3.98,-1.23,12.78,-4.92,208.90,19.25,14:57:26.750,8/28/14,1,1,4102.1669N, 8237.7392W,5.74,24662.60,8
-156.11,-3.97,-1.34,12.78,-6.89,207.87,19.25,14:57:26.968,8/28/14,1,1,4102.1669N, 8237.7392W,5.74,24662.50,8
-155.78,-3.96,-1.34,11.83,-5.91,208.90,19.25,14:57:26.968,8/28/14,1,1,4102.1669N, 8237.7392W,5.67,24662.50,8
-155.62,-3.66,-1.35,10.88,-5.91,209.92,19.83,14:57:27.156,8/28/14,1,1,4102.1669N, 8237.7392W,5.62,24662.40,8
-155.59,-3.51,-1.45,11.83,-5.91,212.99,19.25,14:57:27.359,8/28/14,1,1,4102.1669N, 8237.7392W,5.62,24662.40,8
-155.71,-3.21,-1.61,12.78,-6.89,219.14,19.25,14:57:27.359,8/28/14,1,1,4102.1669N, 8237.7392W,5.58,24662.40,8
-156.02,-2.86,-1.56,13.72,-6.89,225.28,19.25,14:57:27.546,8/28/14,1,1,4102.1655N, 8237.7392W,3.59,24660.10,8
-156.50,-2.53,-1.57,13.72,-6.89,228.35,19.83,14:57:27.546,8/28/14,1,1,4102.1655N, 8237.7392W,3.59,24660.10,8
-157.13,-2.24,-1.56,13.72,-6.89,233.47,19.25,14:57:27.796,8/28/14,1,1,4102.1660N, 8237.7392W,3.41,24660.80,8
-157.92,-2.05,-1.39,13.72,-5.91,239.62,19.25,14:57:28.0,8/28/14,1,1,4102.1660N, 8237.7392W,3.41,24661.60,8
-158.82,-1.86,-1.17,13.72,-6.89,242.69,21.57,14:57:28.0,8/28/14,1,1,4102.1660N, 8237.7392W,3.07,24661.60,8
-159.80,-1.75,-1.06,13.72,-6.89,246.78,19.25,14:57:28.187,8/28/14,1,1,4102.1660N, 8237.7392W,3.07,24662.20,8
-160.83,-1.68,-0.90,14.67,-7.88,249.86,19.25,14:57:28.187,8/28/14,1,1,4102.1660N, 8237.7392W,2.84,24662.20,8
-161.92,-1.69,-0.64,14.67,-7.88,252.93,21.57,14:57:28.406,8/28/14,1,1,4102.1660N, 8237.7392W,2.78,24662.70,8
-162.99,-1.76,-0.51,15.62,-6.89,252.93,19.25,14:57:28.609,8/28/14,1,1,4102.1665N, 8237.7382W,2.78,24665.00,8
-164.06,-1.90,-0.24,15.62,-5.91,257.02,19.25,14:57:28.609,8/28/14,1,1,4102.1665N, 8237.7382W,3.08,24665.00,8
-165.12,-2.09,0.03,14.67,-6.89,259.07,19.25,14:57:28.796,8/28/14,1,1,4102.1665N, 8237.7382W,3.08,24665.30,8
-166.14,-2.25,0.16,13.72,-6.89,262.14,25.05,14:57:28.796,8/28/14,1,1,4102.1665N, 8237.7382W,3.33,24665.30,8
-167.08,-2.53,0.23,15.62,-7.88,263.17,19.25,14:57:28.984,8/28/14,1,1,4102.1665N, 8237.7382W,3.68,24666.40,8
-167.97,-2.68,0.36,16.56,-6.89,264.19,19.25,14:57:29.203,8/28/14,1,1,4102.1665N, 8237.7392W,3.68,24667.40,8
-168.79,-3.09,0.49,13.72,-6.89,263.17,19.25,14:57:29.203,8/28/14,1,1,4102.1665N, 8237.7392W,4.29,24667.40,8
-169.51,-3.34,0.42,13.72,-6.89,263.17,20.41,14:57:29.406,8/28/14,1,1,4102.1665N, 8237.7392W,4.98,24668.10,8
-170.16,-3.64,0.47,15.62,-6.89,263.17,19.25,14:57:29.609,8/28/14,1,1,4102.1669N, 8237.7402W,4.98,24669.00,8
-170.77,-3.86,0.41,14.67,-7.88,260.10,19.25,14:57:29.609,8/28/14,1,1,4102.1669N, 8237.7402W,5.60,24669.00,8
-171.30,-4.16,0.16,14.67,-6.89,260.10,23.31,14:57:29.796,8/28/14,1,1,4102.1669N, 8237.7402W,5.60,24669.70,8
-171.80,-4.26,0.11,13.72,-6.89,258.05,19.25,14:57:29.796,8/28/14,1,1,4102.1669N, 8237.7402W,6.14,24669.70,8
-172.27,-4.20,0.00,14.67,-6.89,253.95,19.25,14:57:30.0,8/28/14,1,1,4102.1674N, 8237.7402W,6.70,24670.80,8
-172.69,-4.33,-0.28,13.72,-7.88,251.90,19.25,14:57:30.203,8/28/14,1,1,4102.1674N, 8237.7412W,6.70,24671.70,8
-173.07,-4.37,-0.47,13.72,-6.89,249.86,24.47,14:57:30.203,8/28/14,1,1,4102.1674N, 8237.7412W,7.32,24671.70,8
-173.41,-4.45,-0.72,13.72,-5.91,249.86,19.25,14:57:30.406,8/28/14,1,1,4102.1679N, 8237.7421W,7.90,24672.60,8
-173.68,-4.41,-1.16,12.78,-6.89,245.76,19.25,14:57:30.593,8/28/14,1,1,4102.1679N, 8237.7431W,7.90,24673.30,8
-173.93,-4.28,-1.44,14.67,-6.89,244.74,19.25,14:57:30.593,8/28/14,1,1,4102.1679N, 8237.7431W,8.18,24673.30,8
-174.20,-3.99,-1.59,13.72,-5.91,242.69,19.25,14:57:30.796,8/28/14,1,1,4102.1679N, 8237.7441W,8.18,24674.00,8
-174.44,-3.73,-1.74,14.67,-6.89,243.71,19.25,14:57:30.796,8/28/14,1,1,4102.1679N, 8237.7441W,8.36,24674.00,8
-174.67,-3.50,-1.86,14.67,-7.88,242.69,19.25,14:57:31.0,8/28/14,1,1,4102.1679N, 8237.7441W,8.44,24674.60,8
-174.89,-3.18,-1.81,14.67,-6.89,242.69,19.83,14:57:31.203,8/28/14,1,1,4102.1679N, 8237.7451W,8.44,24675.10,8
-175.07,-2.98,-1.75,14.67,-4.92,242.69,19.25,14:57:31.203,8/28/14,1,1,4102.1679N, 8237.7451W,8.47,24675.10,8
-175.20,-2.74,-1.75,12.78,-6.89,238.59,19.25,14:57:31.390,8/28/14,1,1,4102.1679N, 8237.7451W,8.47,24675.70,8
-175.27,-2.62,-1.63,13.72,-6.89,240.64,15.77,14:57:31.390,8/28/14,1,1,4102.1679N, 8237.7451W,8.46,24675.70,8
-175.30,-2.42,-1.46,11.83,-6.89,235.52,19.83,14:57:31.609,8/28/14,1,1,4102.1679N, 8237.7460W,8.43,24676.10,8
-175.25,-2.39,-1.23,13.72,-7.88,234.50,19.25,14:57:31.796,8/28/14,1,1,4102.1679N, 8237.7470W,8.43,24676.60,8
-175.13,-2.41,-0.95,12.78,-5.91,234.50,19.25,14:57:31.796,8/28/14,1,1,4102.1679N, 8237.7470W,8.38,24676.60,8
-174.96,-2.49,-0.52,14.67,-5.91,232.45,24.47,14:57:32.0,8/28/14,1,1,4102.1684N, 8237.7480W,8.36,24677.10,8
-174.69,-2.68,-0.17,12.78,-6.89,226.30,19.25,14:57:32.187,8/28/14,1,1,4102.1684N, 8237.7490W,8.36,24677.60,8
-174.35,-2.92,0.13,12.78,-6.89,226.30,19.25,14:57:32.187,8/28/14,1,1,4102.1684N, 8237.7490W,8.23,24677.60,8
-173.95,-3.20,0.48,13.72,-5.91,226.30,23.89,14:57:32.406,8/28/14,1,1,4102.1684N, 8237.7490W,8.23,24678.00,8
-173.49,-3.40,0.71,13.72,-6.89,225.28,19.25,14:57:32.406,8/28/14,1,1,4102.1684N, 8237.7490W,8.05,24678.00,8
-172.96,-3.71,0.81,12.78,-6.89,223.23,19.25,14:57:32.609,8/28/14,1,1,4102.1684N, 8237.7490W,7.56,24678.30,8
-172.39,-3.92,0.92,12.78,-6.89,222.21,19.25,14:57:32.796,8/28/14,1,1,4102.1684N, 8237.7500W,7.56,24678.70,8
-171.79,-4.11,1.00,11.83,-6.89,223.23,24.47,14:57:32.796,8/28/14,1,1,4102.1684N, 8237.7500W,7.40,24678.70,8
-171.15,-4.30,0.85,13.72,-6.89,225.28,19.25,14:57:32.984,8/28/14,1,1,4102.1684N, 8237.7500W,7.20,24679.10,8
-170.47,-4.59,0.71,12.78,-6.89,221.18,19.25,14:57:33.203,8/28/14,1,1,4102.1689N, 8237.7509W,7.20,24679.40,8
-169.80,-4.79,0.64,12.78,-5.91,222.21,19.25,14:57:33.203,8/28/14,1,1,4102.1689N, 8237.7509W,6.78,24679.40,8
-169.14,-4.96,0.46,10.88,-6.89,224.26,19.25,14:57:33.406,8/28/14,1,1,4102.1694N, 8237.7519W,6.78,24680.10,8
-168.48,-5.05,0.09,14.67,-5.91,225.28,19.25,14:57:33.406,8/28/14,1,1,4102.1694N, 8237.7519W,6.65,24680.10,8
-167.87,-5.11,-0.13,11.83,-6.89,223.23,19.25,14:57:33.609,8/28/14,1,1,4102.1694N, 8237.7529W,6.68,24680.60,8
-167.32,-4.99,-0.36,10.88,-6.89,222.21,23.31,14:57:33.796,8/28/14,1,1,4102.1694N, 8237.7529W,6.68,24681.30,8
-166.85,-4.95,-0.66,12.78,-6.89,223.23,19.25,14:57:33.796,8/28/14,1,1,4102.1694N, 8237.7529W,6.67,24681.30,8
-166.49,-4.78,-0.86,13.72,-5.91,225.28,19.25,14:57:34.0,8/28/14,1,1,4102.1694N, 8237.7529W,6.67,24681.80,8
-166.26,-4.66,-1.01,14.67,-6.89,226.30,19.25,14:57:34.203,8/28/14,1,1,4102.1694N, 8237.7539W,6.73,24682.50,8
-166.15,-4.51,-1.18,12.78,-5.91,227.33,23.31,14:57:34.203,8/28/14,1,1,4102.1694N, 8237.7539W,6.80,24682.50,8
-166.16,-4.40,-1.32,13.72,-5.91,229.38,19.25,14:57:34.406,8/28/14,1,1,4102.1694N, 8237.7548W,6.80,24683.10,8
-166.33,-4.26,-1.37,13.72,-6.89,231.42,19.25,14:57:34.406,8/28/14,1,1,4102.1694N, 8237.7548W,6.87,24683.10,8
-166.64,-4.10,-1.37,13.72,-6.89,235.52,20.41,14:57:34.593,8/28/14,1,1,4102.1694N, 8237.7558W,6.82,24683.80,8
-167.08,-3.99,-1.35,12.78,-6.89,236.54,19.25,14:57:34.796,8/28/14,1,1,4102.1694N, 8237.7568W,6.82,24684.30,8
-167.66,-3.80,-1.25,12.78,-6.89,240.64,19.25,14:57:34.796,8/28/14,1,1,4102.1694N, 8237.7568W,6.94,24684.30,8
-168.37,-3.60,-1.08,14.67,-5.91,243.71,19.25,14:57:35.0,8/28/14,1,1,4102.1694N, 8237.7568W,6.94,24684.90,8
-169.19,-3.50,-0.99,13.72,-6.89,247.81,22.15,14:57:35.0,8/28/14,1,1,4102.1694N, 8237.7568W,7.23,24684.90,8
-170.08,-3.49,-0.87,13.72,-6.89,250.88,19.25,14:57:35.203,8/28/14,1,1,4102.1689N, 8237.7568W,7.54,24685.50,8
-171.02,-3.45,-0.78,13.72,-7.88,252.93,19.25,14:57:35.390,8/28/14,1,1,4102.1684N, 8237.7548W,7.54,24688.90,8
-172.01,-3.39,-0.66,13.72,-6.89,258.05,19.25,14:57:35.390,8/28/14,1,1,4102.1684N, 8237.7548W,8.09,24688.90,8
-173.04,-3.35,-0.60,15.62,-7.88,259.07,22.15,14:57:35.609,8/28/14,1,1,4102.1669N, 8237.7519W,7.24,24691.30,8
-174.05,-3.31,-0.50,14.67,-6.89,262.14,19.25,14:57:35.796,8/28/14,1,1,4102.1665N, 8237.7519W,7.24,24691.80,8
-175.07,-3.36,-0.37,13.72,-7.88,262.14,19.25,14:57:35.796,8/28/14,1,1,4102.1665N, 8237.7519W,7.38,24691.80,8
-176.04,-3.37,-0.34,13.72,-8.86,262.14,25.05,14:57:36.0,8/28/14,1,1,4102.1665N, 8237.7529W,7.38,24692.30,8
-176.99,-3.43,-0.26,14.67,-6.89,262.14,19.25,14:57:36.0,8/28/14,1,1,4102.1665N, 8237.7529W,7.67,24692.30,8
-177.90,-3.50,-0.15,15.62,-6.89,265.22,19.25,14:57:36.187,8/28/14,1,1,4102.1660N, 8237.7529W,7.95,24692.80,8
-178.73,-3.65,-0.20,15.62,-7.88,264.19,19.25,14:57:36.406,8/28/14,1,1,4102.1655N, 8237.7529W,7.95,24693.40,8
-179.48,-3.78,-0.25,13.72,-6.89,265.22,19.83,14:57:36.406,8/28/14,1,1,4102.1655N, 8237.7529W,8.17,24693.40,8
179.83,-3.93,-0.26,15.62,-7.88,264.19,19.25,14:57:36.609,8/28/14,1,1,4102.1655N, 8237.7529W,8.41,24694.30,8
179.23,-3.98,-0.43,13.72,-7.88,263.17,19.25,14:57:36.796,8/28/14,1,1,4102.1655N, 8237.7539W,8.41,24695.00,8
178.72,-4.13,-0.64,14.67,-7.88,261.12,19.83,14:57:36.796,8/28/14,1,1,4102.1655N, 8237.7539W,8.64,24695.00,8
178.29,-4.31,-0.83,12.78,-6.89,260.10,19.25,14:57:36.984,8/28/14,1,1,4102.1655N, 8237.7539W,8.64,24695.70,8
177.95,-4.36,-1.08,14.67,-7.88,257.02,19.25,14:57:36.984,8/28/14,1,1,4102.1655N, 8237.7539W,8.78,24695.70,8
177.67,-4.45,-1.32,13.72,-6.89,252.93,19.25,14:57:37.203,8/28/14,1,1,4102.1655N, 8237.7548W,8.82,24696.40,8
177.45,-4.49,-1.58,12.78,-6.89,248.83,20.41,14:57:37.406,8/28/14,1,1,4102.1650N, 8237.7548W,8.82,24697.00,8
177.29,-4.48,-1.87,12.78,-6.89,241.66,19.25,14:57:37.406,8/28/14,1,1,4102.1650N, 8237.7548W,8.80,24697.00,8
177.20,-4.43,-2.25,14.67,-6.89,237.57,19.25,14:57:37.609,8/28/14,1,1,4102.1650N, 8237.7558W,8.80,24697.80,8
177.17,-4.38,-2.63,14.67,-6.89,231.42,18.09,14:57:37.609,8/28/14,1,1,4102.1650N, 8237.7558W,8.58,24697.80,8
177.18,-4.13,-2.97,12.78,-6.89,225.28,19.25,14:57:37.796,8/28/14,1,1,4102.1645N, 8237.7558W,8.57,24698.50,8
177.24,-3.84,-3.39,11.83,-5.91,220.16,19.25,14:57:38.0,8/28/14,1,1,4102.1645N, 8237.7568W,8.57,24699.10,8
177.32,-3.44,-3.70,12.78,-6.89,217.09,19.25,14:57:38.0,8/28/14,1,1,4102.1645N, 8237.7568W,8.40,24699.10,8
177.44,-2.99,-3.84,12.78,-5.91,215.04,23.31,14:57:38.203,8/28/14,1,1,4102.1640N, 8237.7568W,8.28,24699.80,8
177.58,-2.44,-3.94,12.78,-4.92,217.09,19.25,14:57:38.406,8/28/14,1,1,4102.1640N, 8237.7578W,8.28,24700.30,8
177.75,-1.95,-3.91,10.88,-6.89,214.02,19.25,14:57:38.406,8/28/14,1,1,4102.1640N, 8237.7578W,8.12,24700.30,8
177.95,-1.46,-3.68,12.78,-6.89,215.04,20.41,14:57:38.593,8/28/14,1,1,4102.1640N, 8237.7578W,8.12,24700.80,8
178.19,-1.08,-3.32,11.83,-5.91,219.14,19.25,14:57:38.593,8/28/14,1,1,4102.1640N, 8237.7578W,7.92,24700.80,8
178.50,-0.90,-2.86,12.78,-6.89,224.26,19.25,14:57:38.796,8/28/14,1,1,4102.1640N, 8237.7578W,7.90,24701.40,8
178.88,-0.91,-2.28,13.72,-6.89,230.40,19.25,14:57:39.0,8/28/14,1,1,4102.1635N, 8237.7578W,7.90,24701.90,8
179.36,-1.14,-1.70,13.72,-5.91,232.45,22.73,14:57:39.0,8/28/14,1,1,4102.1635N, 8237.7578W,7.79,24701.90,8
179.96,-1.52,-1.25,12.78,-6.89,236.54,19.25,14:57:39.203,8/28/14,1,1,4102.1635N, 8237.7587W,7.63,24702.20,8
-179.31,-1.96,-0.93,14.67,-5.91,242.69,19.25,14:57:39.390,8/28/14,1,1,4102.1630N, 8237.7587W,7.63,24702.40,8
-178.45,-2.46,-0.64,12.78,-6.89,245.76,19.25,14:57:39.390,8/28/14,1,1,4102.1630N, 8237.7587W,7.45,24702.40,8
-177.47,-2.95,-0.62,14.67,-7.88,248.83,19.83,14:57:39.609,8/28/14,1,1,4102.1630N, 8237.7597W,7.45,24703.00,8
-176.36,-3.46,-0.67,12.78,-7.88,247.81,19.25,14:57:39.609,8/28/14,1,1,4102.1630N, 8237.7597W,7.14,24703.00,8
-175.17,-3.87,-0.67,14.67,-6.89,252.93,19.25,14:57:39.796,8/28/14,1,1,4102.1635N, 8237.7597W,7.03,24703.60,8
-173.94,-4.25,-0.77,12.78,-7.88,252.93,23.89,14:57:40.0,8/28/14,1,1,4102.1630N, 8237.7597W,7.03,24704.10,8
-172.61,-4.66,-0.98,14.67,-6.89,254.98,19.25,14:57:40.0,8/28/14,1,1,4102.1630N, 8237.7597W,6.79,24704.10,8
-171.28,-4.90,-1.19,13.72,-6.89,253.95,19.25,14:57:40.187,8/28/14,1,1,4102.1635N, 8237.7597W,6.74,24704.60,8
-169.95,-5.07,-1.43,14.67,-6.89,253.95,20.41,14:57:40.406,8/28/14,1,1,4102.1630N, 8237.7607W,6.74,24705.00,8
-168.65,-5.14,-1.75,13.72,-6.89,253.95,19.83,14:57:40.406,8/28/14,1,1,4102.1630N, 8237.7607W,6.70,24705.00,8
-167.39,-5.18,-2.04,13.72,-5.91,256.00,19.25,14:57:40.609,8/28/14,1,1,4102.1630N, 8237.7607W,6.70,24705.50,8
-166.21,-5.09,-2.31,14.67,-5.91,251.90,19.25,14:57:40.609,8/28/14,1,1,4102.1630N, 8237.7607W,6.29,24705.50,8
-165.12,-5.01,-2.69,13.72,-6.89,250.88,23.31,14:57:40.796,8/28/14,1,1,4102.1630N, 8237.7607W,6.20,24705.90,8
-164.15,-4.88,-3.01,13.72,-4.92,248.83,19.25,14:57:40.984,8/28/14,1,1,4102.1630N, 8237.7607W,6.20,24706.30,8
-163.31,-4.64,-3.25,11.83,-5.91,250.88,19.25,14:57:40.984,8/28/14,1,1,4102.1630N, 8237.7607W,6.11,24706.30,8
-162.65,-4.31,-3.53,14.67,-5.91,248.83,19.25,14:57:41.203,8/28/14,1,1,4102.1625N, 8237.7607W,6.11,24706.80,8
-162.17,-4.04,-3.86,13.72,-6.89,247.81,21.57,14:57:41.203,8/28/14,1,1,4102.1625N, 8237.7607W,6.05,24706.80,8
-161.90,-3.71,-4.02,12.78,-7.88,244.74,19.25,14:57:41.406,8/28/14,1,1,4102.1621N, 8237.7607W,6.00,24707.20,8
-161.87,-3.23,-4.13,12.78,-6.89,243.71,19.25,14:57:41.609,8/28/14,1,1,4102.1621N, 8237.7607W,6.00,24707.60,8
-162.06,-2.81,-4.17,14.67,-6.89,241.66,20.41,14:57:41.609,8/28/14,1,1,4102.1621N, 8237.7607W,5.79,24707.60,8
-162.51,-2.43,-4.00,13.72,-6.89,238.59,19.25,14:57:41.796,8/28/14,1,1,4102.1621N, 8237.7607W,5.71,24708.00,8
-163.15,-2.07,-3.79,12.78,-5.91,237.57,19.25,14:57:42.0,8/28/14,1,1,4102.1621N, 8237.7607W,5.71,24708.40,8
-163.99,-1.89,-3.53,14.67,-5.91,239.62,19.25,14:57:42.0,8/28/14,1,1,4102.1621N, 8237.7607W,5.49,24708.40,8
-165.02,-1.69,-3.11,15.62,-5.91,238.59,21.57,14:57:42.203,8/28/14,1,1,4102.1621N, 8237.7617W,5.49,24708.80,8
-166.18,-1.66,-2.68,14.67,-5.91,236.54,19.25,14:57:42.203,8/28/14,1,1,4102.1621N, 8237.7617W,5.30,24708.80,8
-167.41,-1.51,-2.34,12.78,-6.89,233.47,19.25,14:57:42.406,8/28/14,1,1,4102.1630N, 8237.7597W,5.08,24709.20,8
-168.68,-1.47,-2.04,12.78,-7.88,231.42,23.89,14:57:42.593,8/28/14,1,1,4102.1635N, 8237.7578W,5.08,24711.30,8
-169.98,-1.41,-1.61,13.72,-5.91,233.47,19.83,14:57:42.593,8/28/14,1,1,4102.1635N, 8237.7578W,4.87,24711.30,8
-171.25,-1.53,-1.27,12.78,-5.91,234.50,19.25,14:57:42.796,8/28/14,1,1,4102.1640N, 8237.7578W,4.80,24711.70,8
-172.45,-1.82,-1.06,13.72,-7.88,233.47,19.25,14:57:43.0,8/28/14,1,1,4102.1640N, 8237.7578W,4.80,24712.20,8
-173.95,-2.13,-0.72,12.78,-5.91,229.38,19.25,14:57:43.0,8/28/14,1,1,4102.1640N, 8237.7578W,4.73,24712.20,8
-175.15,-2.44,-0.52,12.78,-6.89,228.35,19.83,14:57:43.203,8/28/14,1,1,4102.1645N, 8237.7578W,4.66,24712.20,8
-176.37,-2.83,-0.31,12.78,-6.89,231.42,22.15,14:57:43.390,8/28/14,1,1,4102.1650N, 8237.7578W,4.66,24713.50,8
-177.97,-3.39,-0.20,12.78,-6.89,227.33,19.25,14:57:43.609,8/28/14,1,1,4102.1655N, 8237.7578W,4.43,24713.50,8
-178.63,-3.72,-0.41,11.83,-6.89,226.30,19.83,14:57:43.796,8/28/14,1,1,4102.1665N, 8237.7578W,4.43,24714.50,8
-179.22,-3.89,-0.59,12.78,-5.91,228.35,19.25,14:57:43.796,8/28/14,1,1,4102.1665N, 8237.7578W,4.46,24714.50,8
-179.76,-4.14,-0.89,11.83,-5.91,228.35,19.25,14:57:44.0,8/28/14,1,1,4102.1665N, 8237.7578W,4.46,24715.00,8
179.79,-4.28,-1.35,12.78,-6.89,228.35,23.89,14:57:44.187,8/28/14,1,1,4102.1665N, 8237.7587W,4.46,24715.50,8
179.38,-4.44,-1.76,10.88,-7.88,227.33,19.25,14:57:44.187,8/28/14,1,1,4102.1665N, 8237.7587W,4.47,24715.50,8
178.98,-4.51,-2.20,12.78,-6.89,229.38,19.25,14:57:44.406,8/28/14,1,1,4102.1669N, 8237.7587W,4.47,24716.00,8
178.62,-4.51,-2.65,12.78,-6.89,232.45,19.83,14:57:44.406,8/28/14,1,1,4102.1669N, 8237.7587W,4.49,24716.00,8
178.25,-4.43,-2.99,13.72,-6.89,232.45,20.41,14:57:44.609,8/28/14,1,1,4102.1674N, 8237.7597W,4.72,24716.50,8
177.84,-4.27,-3.19,12.78,-6.89,232.45,19.25,14:57:44.796,8/28/14,1,1,4102.1679N, 8237.7597W,4.72,24717.00,8
177.41,-4.14,-3.48,13.72,-5.91,232.45,19.25,14:57:44.796,8/28/14,1,1,4102.1679N, 8237.7597W,4.78,24717.00,8
176.95,-3.93,-3.67,13.72,-6.89,234.50,23.89,14:57:44.984,8/28/14,1,1,4102.1679N, 8237.7607W,5.17,24717.70,8
176.47,-3.62,-3.69,12.78,-7.88,236.54,19.25,14:57:45.203,8/28/14,1,1,4102.1684N, 8237.7607W,5.17,24718.30,8
175.94,-3.27,-3.69,11.83,-6.89,237.57,19.25,14:57:45.203,8/28/14,1,1,4102.1684N, 8237.7607W,5.54,24718.30,8
175.43,-3.02,-3.69,13.72,-6.89,238.59,19.25,14:57:45.406,8/28/14,1,1,4102.1684N, 8237.7617W,5.54,24719.00,8
174.90,-2.75,-3.56,13.72,-6.89,239.62,23.89,14:57:45.406,8/28/14,1,1,4102.1684N, 8237.7617W,5.76,24719.00,8
174.39,-2.49,-3.42,13.72,-6.89,241.66,19.25,14:57:45.609,8/28/14,1,1,4102.1689N, 8237.7617W,5.93,24719.50,8
173.93,-2.37,-3.32,12.78,-6.89,241.66,19.25,14:57:45.796,8/28/14,1,1,4102.1689N, 8237.7617W,5.93,24720.00,8
173.52,-2.17,-3.16,13.72,-7.88,244.74,19.25,14:57:45.796,8/28/14,1,1,4102.1689N, 8237.7617W,5.96,24720.00,8
173.15,-2.09,-2.92,15.62,-7.88,246.78,19.83,14:57:46.0,8/28/14,1,1,4102.1689N, 8237.7626W,6.02,24720.50,8
172.85,-2.02,-2.72,14.67,-6.89,247.81,19.25,14:57:46.203,8/28/14,1,1,4102.1694N, 8237.7626W,6.02,24721.10,8
172.64,-1.98,-2.49,14.67,-7.88,248.83,19.25,14:57:46.203,8/28/14,1,1,4102.1694N, 8237.7626W,6.08,24721.10,8
172.50,-1.88,-2.28,11.83,-7.88,249.86,23.89,14:57:46.406,8/28/14,1,1,4102.1694N, 8237.7636W,6.08,24721.60,8
172.46,-1.77,-2.05,14.67,-7.88,248.83,19.25,14:57:46.406,8/28/14,1,1,4102.1694N, 8237.7636W,6.09,24721.60,8
172.51,-1.86,-1.85,13.72,-7.88,246.78,15.19,14:57:46.593,8/28/14,1,1,4102.1694N, 8237.7646W,6.03,24722.00,8
172.66,-1.94,-1.66,13.72,-6.89,246.78,19.25,14:57:46.796,8/28/14,1,1,4102.1694N, 8237.7646W,6.03,24722.50,8
172.91,-2.18,-1.53,13.72,-8.86,244.74,22.15,14:57:46.796,8/28/14,1,1,4102.1694N, 8237.7646W,6.06,24722.50,8
173.28,-2.42,-1.51,12.78,-6.89,244.74,19.25,14:57:47.0,8/28/14,1,1,4102.1699N, 8237.7656W,6.04,24722.90,8
173.74,-2.64,-1.43,13.72,-4.92,245.76,19.25,14:57:47.203,8/28/14,1,1,4102.1699N, 8237.7666W,6.04,24723.40,8
174.26,-2.90,-1.31,13.72,-6.89,243.71,23.89,14:57:47.203,8/28/14,1,1,4102.1699N, 8237.7666W,6.00,24723.40,8
174.88,-3.24,-1.33,12.78,-7.88,241.66,19.83,14:57:47.390,8/28/14,1,1,4102.1699N, 8237.7666W,6.00,24723.90,8
175.55,-3.55,-1.34,12.78,-7.88,240.64,19.25,14:57:47.390,8/28/14,1,1,4102.1699N, 8237.7666W,5.95,24723.90,8
176.27,-3.77,-1.33,13.72,-6.89,241.66,19.25,14:57:47.609,8/28/14,1,1,4102.1704N, 8237.7666W,5.91,24724.30,8
177.02,-4.01,-1.38,12.78,-6.89,241.66,19.83,14:57:47.796,8/28/14,1,1,4102.1704N, 8237.7666W,5.91,24724.70,8
177.79,-4.20,-1.45,12.78,-7.88,243.71,19.83,14:57:47.796,8/28/14,1,1,4102.1704N, 8237.7666W,5.84,24724.70,8
178.55,-4.30,-1.52,13.72,-6.89,243.71,19.25,14:57:48.0,8/28/14,1,1,4102.1704N, 8237.7675W,5.84,24725.20,8
179.31,-4.36,-1.65,12.78,-6.89,242.69,23.89,14:57:48.0,8/28/14,1,1,4102.1704N, 8237.7675W,5.78,24725.20,8
-179.94,-4.37,-1.83,13.72,-7.88,241.66,19.83,14:57:48.187,8/28/14,1,1,4102.1704N, 8237.7675W,5.72,24725.80,8
-179.22,-4.36,-1.95,12.78,-6.89,244.74,19.25,14:57:48.406,8/28/14,1,1,4102.1704N, 8237.7666W,5.72,24728.40,8
-178.52,-4.38,-2.07,12.78,-6.89,243.71,19.83,14:57:48.406,8/28/14,1,1,4102.1704N, 8237.7666W,5.42,24728.40,8
-177.85,-4.42,-2.24,13.72,-6.89,244.74,19.83,14:57:48.609,8/28/14,1,1,4102.1684N, 8237.7626W,5.23,24730.20,8
-177.24,-4.47,-2.37,13.72,-6.89,245.76,19.25,14:57:48.796,8/28/14,1,1,4102.1689N, 8237.7626W,5.23,24730.70,8
-176.71,-4.40,-2.44,12.78,-7.88,244.74,19.25,14:57:48.796,8/28/14,1,1,4102.1689N, 8237.7626W,5.02,24730.70,8
-176.25,-4.23,-2.57,12.78,-7.88,243.71,23.89,14:57:48.984,8/28/14,1,1,4102.1689N, 8237.7636W,5.02,24731.10,8
-175.92,-3.99,-2.63,12.78,-7.88,244.74,19.25,14:57:48.984,8/28/14,1,1,4102.1689N, 8237.7636W,4.96,24731.10,8
-175.66,-3.80,-2.60,13.72,-6.89,243.71,19.25,14:57:49.203,8/28/14,1,1,4102.1684N, 8237.7636W,4.89,24731.60,8
-175.49,-3.72,-2.67,12.78,-7.88,244.74,19.25,14:57:49.406,8/28/14,1,1,4102.1684N, 8237.7646W,4.89,24732.00,8
-175.40,-3.64,-2.65,12.78,-7.88,241.66,25.05,14:57:49.406,8/28/14,1,1,4102.1684N, 8237.7646W,4.82,24732.00,8
-175.37,-3.69,-2.61,12.78,-6.89,241.66,19.25,14:57:49.609,8/28/14,1,1,4102.1684N, 8237.7626W,4.76,24733.20,8
-175.43,-3.64,-2.55,13.72,-5.91,238.59,19.25,14:57:49.796,8/28/14,1,1,4102.1684N, 8237.7636W,4.76,24733.70,8
-175.56,-3.75,-2.46,12.78,-7.88,238.59,24.47,14:57:49.796,8/28/14,1,1,4102.1684N, 8237.7636W,4.77,24733.70,8
-175.79,-3.77,-2.23,12.78,-7.88,237.57,19.83,14:57:50.0,8/28/14,1,1,4102.1679N, 8237.7636W,4.77,24734.10,8
-176.11,-3.85,-1.99,12.78,-5.91,237.57,19.25,14:57:50.0,8/28/14,1,1,4102.1679N, 8237.7636W,4.75,24734.10,8
-176.51,-3.92,-1.79,12.78,-6.89,234.50,19.83,14:57:50.203,8/28/14,1,1,4102.1679N, 8237.7646W,4.72,24734.60,8
-176.98,-4.01,-1.60,12.78,-7.88,231.42,23.31,14:57:50.406,8/28/14,1,1,4102.1679N, 8237.7646W,4.72,24735.10,8
-177.54,-4.06,-1.41,11.83,-6.89,231.42,19.25,14:57:50.406,8/28/14,1,1,4102.1679N, 8237.7646W,4.44,24735.10,8
-178.13,-4.22,-1.33,11.83,-6.89,227.33,19.25,14:57:50.593,8/28/14,1,1,4102.1674N, 8237.7646W,4.44,24735.60,8
-178.76,-4.40,-1.28,12.78,-6.89,223.23,19.83,14:57:50.593,8/28/14,1,1,4102.1674N, 8237.7646W,4.23,24735.60,8
-179.43,-4.59,-1.30,11.83,-5.91,224.26,20.99,14:57:50.796,8/28/14,1,1,4102.1665N, 8237.7656W,4.22,24736.00,8
179.87,-4.79,-1.37,11.83,-6.89,226.30,19.83,14:57:51.0,8/28/14,1,1,4102.1660N, 8237.7666W,4.22,24736.50,8
179.13,-4.88,-1.45,11.83,-7.88,225.28,19.25,14:57:51.0,8/28/14,1,1,4102.1660N, 8237.7666W,4.25,24736.50,8
178.33,-4.97,-1.49,13.72,-6.89,226.30,20.99,14:57:51.203,8/28/14,1,1,4102.1655N, 8237.7666W,4.46,24736.90,8
177.47,-5.01,-1.47,11.83,-5.91,227.33,19.83,14:57:51.390,8/28/14,1,1,4102.1650N, 8237.7666W,4.46,24737.30,8
176.54,-5.03,-1.45,13.72,-5.91,228.35,19.25,14:57:51.390,8/28/14,1,1,4102.1650N, 8237.7666W,5.20,24737.30,8
175.54,-4.96,-1.44,12.78,-6.89,230.40,19.83,14:57:51.609,8/28/14,1,1,4102.1650N, 8237.7666W,5.20,24737.60,8
174.50,-4.77,-1.45,12.78,-6.89,230.40,19.83,14:57:51.609,8/28/14,1,1,4102.1650N, 8237.7666W,5.58,24737.60,8
173.43,-4.61,-1.41,12.78,-6.89,231.42,19.25,14:57:51.796,8/28/14,1,1,4102.1650N, 8237.7666W,5.87,24738.00,8
172.30,-4.45,-1.44,12.78,-7.88,232.45,19.25,14:57:52.0,8/28/14,1,1,4102.1645N, 8237.7675W,5.87,24738.40,8
171.17,-4.30,-1.41,12.78,-6.89,236.54,23.89,14:57:52.0,8/28/14,1,1,4102.1645N, 8237.7675W,6.15,24738.40,8
170.05,-4.16,-1.47,12.78,-6.89,235.52,19.83,14:57:52.187,8/28/14,1,1,4102.1645N, 8237.7675W,6.59,24738.80,8
168.95,-4.12,-1.38,13.72,-6.89,237.57,19.25,14:57:52.406,8/28/14,1,1,4102.1645N, 8237.7685W,6.59,24739.20,8
167.88,-4.08,-1.25,13.72,-5.91,241.66,19.83,14:57:52.406,8/28/14,1,1,4102.1645N, 8237.7685W,6.97,24739.20,8
166.83,-3.99,-1.07,14.67,-6.89,243.71,20.99,14:57:52.609,8/28/14,1,1,4102.1640N, 8237.7685W,6.97,24739.60,8
165.84,-3.99,-0.93,14.67,-6.89,243.71,19.83,14:57:52.609,8/28/14,1,1,4102.1640N, 8237.7685W,7.39,24739.60,8
164.91,-3.95,-0.74,12.78,-6.89,246.78,19.83,14:57:52.796,8/28/14,1,1,4102.1640N, 8237.7695W,7.43,24740.00,8
164.04,-3.86,-0.63,13.72,-7.88,248.83,23.89,14:57:52.984,8/28/14,1,1,4102.1640N, 8237.7695W,7.43,24740.50,8
163.23,-3.77,-0.63,14.67,-6.89,252.93,15.77,14:57:52.984,8/28/14,1,1,4102.1640N, 8237.7695W,7.62,24740.50,8
162.51,-3.75,-0.52,14.67,-6.89,252.93,19.83,14:57:53.203,8/28/14,1,1,4102.1640N, 8237.7705W,7.89,24740.90,8
161.87,-3.71,-0.40,14.67,-8.86,252.93,19.83,14:57:53.406,8/28/14,1,1,4102.1640N, 8237.7705W,7.89,24741.40,8
161.34,-3.72,-0.44,11.83,-7.88,251.90,24.47,14:57:53.406,8/28/14,1,1,4102.1640N, 8237.7705W,8.17,24741.40,8
160.91,-3.74,-0.46,14.67,-6.89,256.00,19.83,14:57:53.609,8/28/14,1,1,4102.1640N, 8237.7714W,8.17,24741.80,8
160.57,-3.74,-0.46,13.72,-7.88,253.95,19.83,14:57:53.609,8/28/14,1,1,4102.1640N, 8237.7714W,8.48,24741.80,8
160.33,-3.77,-0.50,13.72,-7.88,256.00,19.83,14:57:53.796,8/28/14,1,1,4102.1635N, 8237.7724W,8.72,24742.20,8
160.19,-3.83,-0.52,14.67,-6.89,256.00,20.41,14:57:54.0,8/28/14,1,1,4102.1635N, 8237.7734W,8.72,24742.70,8
160.11,-3.82,-0.44,15.62,-7.88,256.00,19.83,14:57:54.0,8/28/14,1,1,4102.1635N, 8237.7734W,9.13,24742.70,8
160.10,-3.87,-0.44,15.62,-7.88,256.00,19.83,14:57:54.203,8/28/14,1,1,4102.1630N, 8237.7744W,9.13,24743.10,8
160.17,-3.95,-0.43,12.78,-6.89,253.95,23.89,14:57:54.203,8/28/14,1,1,4102.1630N, 8237.7744W,9.81,24743.10,8
160.30,-3.86,-0.38,15.62,-7.88,256.00,19.83,14:57:54.406,8/28/14,1,1,4102.1630N, 8237.7753W,10.16,24743.60,8
160.49,-3.90,-0.38,13.72,-7.88,254.98,19.83,14:57:54.593,8/28/14,1,1,4102.1625N, 8237.7753W,10.16,24744.00,8
160.76,-3.88,-0.50,13.72,-6.89,252.93,19.25,14:57:54.593,8/28/14,1,1,4102.1625N, 8237.7753W,10.46,24744.00,8
161.09,-3.93,-0.52,13.72,-6.89,249.86,20.99,14:57:54.796,8/28/14,1,1,4102.1625N, 8237.7773W,10.52,24744.40,8
161.45,-3.95,-0.58,12.78,-6.89,249.86,19.83,14:57:55.0,8/28/14,1,1,4102.1625N, 8237.7783W,10.52,24744.90,8
161.87,-4.00,-0.70,13.72,-6.89,248.83,19.83,14:57:55.0,8/28/14,1,1,4102.1625N, 8237.7783W,10.58,24744.90,8
162.34,-4.03,-0.76,13.72,-6.89,244.74,19.25,14:57:55.203,8/28/14,1,1,4102.1621N, 8237.7792W,10.58,24745.30,8
162.82,-4.09,-0.76,12.78,-6.89,242.69,19.83,14:57:55.203,8/28/14,1,1,4102.1621N, 8237.7792W,10.63,24745.30,8
163.33,-4.15,-0.82,12.78,-6.89,239.62,19.83,14:57:55.390,8/28/14,1,1,4102.1625N, 8237.7802W,10.84,24745.70,8
163.86,-4.14,-0.85,13.72,-6.89,237.57,19.25,14:57:55.609,8/28/14,1,1,4102.1625N, 8237.7802W,10.84,24746.10,8
164.39,-4.15,-0.82,13.72,-5.91,234.50,19.83,14:57:55.609,8/28/14,1,1,4102.1625N, 8237.7802W,10.91,24746.10,8
164.94,-4.15,-0.89,13.72,-5.91,234.50,19.83,14:57:55.796,8/28/14,1,1,4102.1625N, 8237.7822W,11.20,24746.50,8
165.50,-4.14,-1.03,12.78,-7.88,230.40,19.83,14:57:56.0,8/28/14,1,1,4102.1625N, 8237.7832W,11.20,24746.80,8
166.07,-4.07,-1.19,11.83,-6.89,226.30,23.31,14:57:56.0,8/28/14,1,1,4102.1625N, 8237.7832W,11.24,24746.80,8
166.63,-3.97,-1.33,12.78,-6.89,226.30,19.83,14:57:56.187,8/28/14,1,1,4102.1630N, 8237.7841W,11.24,24747.20,8
167.22,-3.91,-1.58,11.83,-6.89,225.28,19.83,14:57:56.187,8/28/14,1,1,4102.1630N, 8237.7841W,11.40,24747.20,8
167.79,-3.86,-1.65,11.83,-6.89,222.21,19.83,14:57:56.406,8/28/14,1,1,4102.1630N, 8237.7851W,11.46,24747.50,8
168.36,-3.85,-1.76,11.83,-6.89,221.18,23.89,14:57:56.609,8/28/14,1,1,4102.1630N, 8237.7861W,11.46,24747.90,8
168.92,-3.77,-1.83,11.83,-5.91,222.21,19.83,14:57:56.609,8/28/14,1,1,4102.1630N, 8237.7861W,11.52,24747.90,8
169.45,-3.64,-1.85,14.67,-6.89,222.21,19.83,14:57:56.796,8/28/14,1,1,4102.1630N, 8237.7871W,11.52,24748.20,8
169.93,-3.48,-1.82,11.83,-5.91,224.26,19.25,14:57:56.796,8/28/14,1,1,4102.1630N, 8237.7871W,11.55,24748.20,8
170.40,-3.24,-1.87,11.83,-5.91,223.23,19.83,14:57:56.984,8/28/14,1,1,4102.1630N, 8237.7880W,11.54,24748.20,8
170.82,-3.05,-1.88,12.78,-6.89,223.23,19.83,14:57:57.203,8/28/14,1,1,4102.1630N, 8237.7890W,11.54,24749.20,8
171.21,-2.81,-1.80,12.78,-6.89,225.28,19.83,14:57:57.203,8/28/14,1,1,4102.1630N, 8237.7890W,11.46,24749.20,8
171.57,-2.59,-1.68,12.78,-6.89,227.33,23.31,14:57:57.406,8/28/14,1,1,4102.1630N, 8237.7890W,11.12,24749.80,8
171.93,-2.45,-1.59,12.78,-6.89,232.45,19.83,14:57:57.609,8/28/14,1,1,4102.1630N, 8237.7890W,11.12,24750.60,8
172.25,-2.33,-1.35,12.78,-6.89,233.47,19.83,14:57:57.609,8/28/14,1,1,4102.1630N, 8237.7890W,10.80,24750.60,8
172.57,-2.24,-1.09,14.67,-6.89,237.57,19.83,14:57:57.796,8/28/14,1,1,4102.1630N, 8237.7900W,10.80,24751.20,8
172.90,-2.32,-0.85,13.72,-7.88,242.69,20.41,14:57:57.796,8/28/14,1,1,4102.1630N, 8237.7900W,10.54,24751.20,8
173.25,-2.34,-0.64,12.78,-7.88,248.83,19.83,14:57:58.0,8/28/14,1,1,4102.1625N, 8237.7900W,10.17,24751.90,8
173.61,-2.38,-0.39,12.78,-7.88,249.86,19.83,14:57:58.203,8/28/14,1,1,4102.1625N, 8237.7910W,10.17,24752.40,8
174.01,-2.50,-0.26,14.67,-7.88,251.90,23.89,14:57:58.203,8/28/14,1,1,4102.1625N, 8237.7910W,9.84,24752.40,8
174.45,-2.57,-0.21,13.72,-7.88,254.98,19.83,14:57:58.406,8/28/14,1,1,4102.1625N, 8237.7919W,9.51,24752.80,8
174.91,-2.58,-0.11,13.72,-7.88,256.00,19.83,14:57:58.593,8/28/14,1,1,4102.1625N, 8237.7919W,9.51,24753.30,8
175.40,-2.69,-0.10,13.72,-6.89,258.05,19.83,14:57:58.593,8/28/14,1,1,4102.1625N, 8237.7919W,9.28,24753.30,8
175.94,-2.88,-0.14,14.67,-8.86,259.07,20.41,14:57:58.796,8/28/14,1,1,4102.1621N, 8237.7929W,9.28,24753.70,8
176.51,-2.98,-0.11,13.72,-7.88,258.05,19.83,14:57:58.796,8/28/14,1,1,4102.1621N, 8237.7929W,9.12,24753.70,8
177.09,-3.20,-0.09,12.78,-7.88,256.00,19.83,14:57:59.0,8/28/14,1,1,4102.1621N, 8237.7929W,9.07,24754.20,8
177.67,-3.39,-0.14,13.72,-9.85,257.02,19.25,14:57:59.203,8/28/14,1,1,4102.1621N, 8237.7939W,9.07,24754.60,8
178.23,-3.53,-0.26,14.67,-7.88,257.02,19.83,14:57:59.203,8/28/14,1,1,4102.1621N, 8237.7939W,8.90,24754.60,8
178.76,-3.64,-0.32,12.78,-6.89,254.98,19.83,14:57:59.390,8/28/14,1,1,4102.1621N, 8237.7939W,8.85,24755.00,8
179.25,-3.79,-0.45,12.78,-7.88,252.93,19.83,14:57:59.609,8/28/14,1,1,4102.1621N, 8237.7949W,8.85,24755.40,8
179.67,-3.81,-0.54,11.83,-8.86,251.90,23.31,14:57:59.609,8/28/14,1,1,4102.1621N, 8237.7949W,8.60,24755.40,8
-179.99,-3.80,-0.58,13.72,-7.88,251.90,19.83,14:57:59.796,8/28/14,1,1,4102.1621N, 8237.7949W,8.60,24755.20,8
-179.72,-3.83,-0.74,13.72,-7.88,252.93,19.83,14:57:59.796,8/28/14,1,1,4102.1621N, 8237.7949W,8.41,24755.20,8
-179.53,-3.87,-0.95,11.83,-7.88,246.78,19.83,14:58:0.0,8/28/14,1,1,4102.1621N, 8237.7958W,8.25,24755.50,8
-179.44,-3.91,-1.12,11.83,-7.88,245.76,25.05,14:58:0.187,8/28/14,1,1,4102.1616N, 8237.7968W,8.25,24755.80,8
-179.44,-3.93,-1.38,12.78,-6.89,245.76,19.83,14:58:0.187,8/28/14,1,1,4102.1616N, 8237.7968W,8.24,24755.80,8
-179.55,-3.96,-1.62,13.72,-6.89,244.74,19.83,14:58:0.406,8/28/14,1,1,4102.1616N, 8237.7968W,8.24,24755.70,8
-179.81,-3.94,-1.78,13.72,-7.88,242.69,23.89,14:58:0.406,8/28/14,1,1,4102.1616N, 8237.7968W,8.23,24755.70,8
179.79,-3.82,-2.02,12.78,-7.88,241.66,19.83,14:58:0.609,8/28/14,1,1,4102.1616N, 8237.7978W,8.18,24756.00,8
179.22,-3.68,-2.22,12.78,-7.88,241.66,19.83,14:58:0.796,8/28/14,1,1,4102.1616N, 8237.7978W,8.18,24756.30,8
178.48,-3.40,-2.35,13.72,-6.89,242.69,19.83,14:58:0.796,8/28/14,1,1,4102.1616N, 8237.7978W,8.13,24756.30,8
177.56,-3.11,-2.45,13.72,-5.91,242.69,23.31,14:58:0.984,8/28/14,1,1,4102.1616N, 8237.7978W,7.89,24756.60,8
176.51,-2.90,-2.52,12.78,-6.89,242.69,19.83,14:58:1.203,8/28/14,1,1,4102.1611N, 8237.7978W,7.89,24756.90,8
175.33,-2.74,-2.50,11.83,-5.91,242.69,19.83,14:58:1.203,8/28/14,1,1,4102.1611N, 8237.7978W,7.49,24756.90,8
174.07,-2.62,-2.45,12.78,-5.91,244.74,19.83,14:58:1.406,8/28/14,1,1,4102.1606N, 8237.7988W,7.49,24756.90,8
172.77,-2.51,-2.44,13.72,-7.88,242.69,23.89,14:58:1.406,8/28/14,1,1,4102.1606N, 8237.7988W,7.13,24756.90,8
171.42,-2.45,-2.47,13.72,-6.89,242.69,19.83,14:58:1.609,8/28/14,1,1,4102.1606N, 8237.7988W,6.75,24757.10,8
170.05,-2.27,-2.46,13.72,-6.89,241.66,19.83,14:58:1.796,8/28/14,1,1,4102.1606N, 8237.7988W,6.75,24757.40,8
168.20,-2.03,-2.45,12.78,-7.88,238.59,19.25,14:58:1.796,8/28/14,1,1,4102.1606N, 8237.7988W,6.70,24757.40,8
166.38,-1.83,-2.23,11.83,-6.89,237.57,19.83,14:58:2.0,8/28/14,1,1,4102.1601N, 8237.7998W,6.52,24757.40,8
164.65,-1.73,-2.03,13.72,-5.91,236.54,19.83,14:58:2.203,8/28/14,1,1,4102.1601N, 8237.7998W,6.33,24757.40,8
162.69,-1.80,-1.79,13.72,-6.89,232.45,19.25,14:58:2.406,8/28/14,1,1,4102.1601N, 8237.7998W,6.14,24757.40,8
161.66,-1.87,-1.75,12.78,-6.89,232.45,19.83,14:58:2.593,8/28/14,1,1,4102.1606N, 8237.8007W,6.14,24758.40,8
160.75,-1.94,-1.82,11.83,-6.89,231.42,19.83,14:58:2.593,8/28/14,1,1,4102.1606N, 8237.8007W,6.11,24758.40,8
159.94,-1.91,-1.83,13.72,-6.89,230.40,23.31,14:58:2.796,8/28/14,1,1,4102.1606N, 8237.8017W,6.05,24758.70,8
159.21,-1.84,-1.78,12.78,-6.89,228.35,19.83,14:58:3.0,8/28/14,1,1,4102.1606N, 8237.8017W,6.05,24759.00,8
158.59,-1.85,-1.79,12.78,-8.86,230.40,19.83,14:58:3.0,8/28/14,1,1,4102.1606N, 8237.8017W,5.99,24759.00,8
158.08,-1.86,-1.75,12.78,-6.89,231.42,19.83,14:58:3.203,8/28/14,1,1,4102.1611N, 8237.8017W,5.95,24759.30,8
157.64,-1.91,-1.56,12.78,-6.89,228.35,19.83,14:58:3.390,8/28/14,1,1,4102.1611N, 8237.8017W,5.95,24759.60,8
157.32,-2.04,-1.47,10.88,-6.89,226.30,19.83,14:58:3.390,8/28/14,1,1,4102.1611N, 8237.8017W,5.99,24759.60,8
157.10,-2.15,-1.47,11.83,-6.89,224.26,19.83,14:58:3.609,8/28/14,1,1,4102.1616N, 8237.8027W,5.99,24759.90,8
156.97,-2.27,-1.45,11.83,-6.89,224.26,23.89,14:58:3.609,8/28/14,1,1,4102.1616N, 8237.8027W,6.00,24759.90,8
156.93,-2.23,-1.55,10.88,-5.91,223.23,19.83,14:58:3.796,8/28/14,1,1,4102.1616N, 8237.8037W,6.16,24760.20,8
156.98,-2.28,-1.70,13.72,-6.89,223.23,19.83,14:58:4.0,8/28/14,1,1,4102.1621N, 8237.8037W,6.16,24760.50,8
157.07,-2.26,-1.81,10.88,-6.89,223.23,19.25,14:58:4.0,8/28/14,1,1,4102.1621N, 8237.8037W,6.33,24760.50,8
157.24,-2.22,-1.81,11.83,-7.88,224.26,24.47,14:58:4.187,8/28/14,1,1,4102.1621N, 8237.8046W,6.33,24760.80,8
157.46,-2.21,-1.78,12.78,-6.89,227.33,19.83,14:58:4.187,8/28/14,1,1,4102.1621N, 8237.8046W,6.33,24760.80,8
157.77,-2.42,-1.73,13.72,-6.89,227.33,19.83,14:58:4.406,8/28/14,1,1,4102.1621N, 8237.8056W,6.49,24761.10,8
158.12,-2.55,-1.63,10.88,-6.89,227.33,19.25,14:58:4.609,8/28/14,1,1,4102.1625N, 8237.8066W,6.49,24761.40,8
158.54,-2.75,-1.58,10.88,-5.91,229.38,19.83,14:58:4.609,8/28/14,1,1,4102.1625N, 8237.8066W,6.94,24761.40,8
159.04,-2.91,-1.68,12.78,-6.89,232.45,19.83,14:58:4.796,8/28/14,1,1,4102.1630N, 8237.8066W,7.22,24761.60,8
159.57,-3.01,-1.80,12.78,-6.89,231.42,19.83,14:58:4.984,8/28/14,1,1,4102.1630N, 8237.8066W,7.22,24761.90,8
160.12,-3.04,-1.77,12.78,-6.89,234.50,25.63,14:58:4.984,8/28/14,1,1,4102.1630N, 8237.8066W,7.58,24761.90,8
160.71,-3.03,-1.87,11.83,-8.86,232.45,19.83,14:58:5.203,8/28/14,1,1,4102.1630N, 8237.8076W,7.58,24762.10,8
161.34,-3.18,-1.98,11.83,-6.89,234.50,19.83,14:58:5.203,8/28/14,1,1,4102.1630N, 8237.8076W,7.88,24762.10,8
162.01,-3.28,-2.02,11.83,-6.89,232.45,19.83,14:58:5.406,8/28/14,1,1,4102.1635N, 8237.8085W,8.26,24762.40,8
162.71,-3.46,-1.99,11.83,-5.91,234.50,23.31,14:58:5.609,8/28/14,1,1,4102.1640N, 8237.8095W,8.26,24762.70,8
163.43,-3.61,-2.10,11.83,-7.88,234.50,19.83,14:58:5.609,8/28/14,1,1,4102.1640N, 8237.8095W,8.74,24762.70,8
164.16,-3.72,-2.17,13.72,-6.89,239.62,19.83,14:58:5.796,8/28/14,1,1,4102.1640N, 8237.8105W,9.10,24762.90,8
164.89,-3.65,-2.35,12.78,-6.89,239.62,24.47,14:58:6.0,8/28/14,1,1,4102.1645N, 8237.8115W,9.10,24763.20,8
165.64,-3.72,-2.56,13.72,-7.88,238.59,19.83,14:58:6.0,8/28/14,1,1,4102.1645N, 8237.8115W,9.40,24763.20,8
166.38,-3.66,-2.76,11.83,-7.88,240.64,19.83,14:58:6.203,8/28/14,1,1,4102.1645N, 8237.8125W,9.40,24763.40,8
167.06,-3.56,-2.77,11.83,-5.91,242.69,19.83,14:58:6.203,8/28/14,1,1,4102.1645N, 8237.8125W,9.67,24763.40,8
167.74,-3.49,-2.84,12.78,-6.89,241.66,20.99,14:58:6.406,8/28/14,1,1,4102.1650N, 8237.8134W,10.03,24763.70,8
168.38,-3.50,-2.87,12.78,-6.89,241.66,19.83,14:58:6.593,8/28/14,1,1,4102.1655N, 8237.8144W,10.03,24764.00,8
169.00,-3.47,-2.81,13.72,-6.89,243.71,19.83,14:58:6.593,8/28/14,1,1,4102.1655N, 8237.8144W,10.40,24764.00,8
169.60,-3.46,-2.85,12.78,-6.89,244.74,18.67,14:58:6.796,8/28/14,1,1,4102.1655N, 8237.8154W,10.40,24764.70,8
170.18,-3.40,-2.99,12.78,-6.89,246.78,20.41,14:58:7.0,8/28/14,1,1,4102.1660N, 8237.8154W,10.58,24765.40,8
170.72,-3.25,-3.06,12.78,-4.92,250.88,19.83,14:58:7.0,8/28/14,1,1,4102.1660N, 8237.8154W,10.85,24765.40,8
171.22,-3.11,-3.11,13.72,-4.92,250.88,19.83,14:58:7.203,8/28/14,1,1,4102.1665N, 8237.8154W,10.85,24766.30,8
171.68,-3.05,-3.17,14.67,-6.89,252.93,23.31,14:58:7.203,8/28/14,1,1,4102.1665N, 8237.8154W,11.16,24766.30,8
172.08,-2.86,-3.09,12.78,-6.89,250.88,19.83,14:58:7.390,8/28/14,1,1,4102.1665N, 8237.8154W,11.47,24767.70,8
172.46,-2.82,-2.98,13.72,-6.89,249.86,19.83,14:58:7.609,8/28/14,1,1,4102.1669N, 8237.8154W,11.47,24768.90,8
172.81,-2.72,-2.95,13.72,-7.88,249.86,20.41,14:58:7.609,8/28/14,1,1,4102.1669N, 8237.8154W,11.80,24768.90,8
173.14,-2.71,-2.86,15.62,-5.91,251.90,20.41,14:58:7.796,8/28/14,1,1,4102.1669N, 8237.8173W,11.80,24769.30,8
173.41,-2.63,-2.73,13.72,-6.89,252.93,19.83,14:58:7.796,8/28/14,1,1,4102.1669N, 8237.8173W,11.87,24769.30,8
173.69,-2.64,-2.73,13.72,-6.89,252.93,19.83,14:58:8.0,8/28/14,1,1,4102.1679N, 8237.8183W,11.89,24769.80,8
173.93,-2.59,-2.62,12.78,-7.88,252.93,23.89,14:58:8.187,8/28/14,1,1,4102.1679N, 8237.8173W,11.89,24771.60,8
174.15,-2.50,-2.43,13.72,-5.91,252.93,19.83,14:58:8.187,8/28/14,1,1,4102.1679N, 8237.8173W,11.86,24771.60,8
174.35,-2.53,-2.32,13.72,-5.91,253.95,19.83,14:58:8.406,8/28/14,1,1,4102.1679N, 8237.8173W,11.80,24773.10,8
174.55,-2.54,-2.27,14.67,-6.89,248.83,19.83,14:58:8.609,8/28/14,1,1,4102.1684N, 8237.8173W,11.80,24774.10,8
174.74,-2.64,-2.08,13.72,-6.89,246.78,22.73,14:58:8.609,8/28/14,1,1,4102.1684N, 8237.8173W,11.74,24774.10,8
174.93,-2.71,-2.08,15.62,-6.89,248.83,19.83,14:58:8.796,8/28/14,1,1,4102.1684N, 8237.8193W,11.74,24774.50,8
175.14,-2.89,-2.13,13.72,-6.89,244.74,19.83,14:58:8.796,8/28/14,1,1,4102.1684N, 8237.8193W,11.72,24774.50,8
175.33,-2.91,-2.11,11.83,-6.89,241.66,19.25,14:58:8.984,8/28/14,1,1,4102.1689N, 8237.8193W,11.67,24774.90,8
175.51,-3.01,-2.09,11.83,-7.88,238.59,16.35,14:58:9.203,8/28/14,1,1,4102.1694N, 8237.8203W,11.67,24775.30,8
175.70,-3.04,-2.25,13.72,-5.91,238.59,19.83,14:58:9.203,8/28/14,1,1,4102.1694N, 8237.8203W,11.48,24775.30,8
175.87,-3.10,-2.26,15.62,-6.89,237.57,19.83,14:58:9.406,8/28/14,1,1,4102.1694N, 8237.8203W,11.30,24775.70,8
176.04,-3.15,-2.32,12.78,-7.88,232.45,20.41,14:58:9.609,8/28/14,1,1,4102.1699N, 8237.8212W,11.30,24776.00,8
176.20,-3.23,-2.42,10.88,-7.88,230.40,20.41,14:58:9.609,8/28/14,1,1,4102.1699N, 8237.8212W,11.07,24776.00,8
176.36,-3.28,-2.58,13.72,-6.89,229.38,19.83,14:58:9.796,8/28/14,1,1,4102.1704N, 8237.8222W,11.07,24776.30,8
176.48,-3.31,-2.63,12.78,-6.89,226.30,19.83,14:58:9.796,8/28/14,1,1,4102.1704N, 8237.8222W,11.03,24776.30,8
176.59,-3.32,-2.78,12.78,-6.89,224.26,25.05,14:58:10.0,8/28/14,1,1,4102.1708N, 8237.8232W,10.76,24776.70,8
176.68,-3.29,-2.98,11.83,-6.89,222.21,19.83,14:58:10.203,8/28/14,1,1,4102.1708N, 8237.8242W,10.76,24777.00,8
176.74,-3.26,-3.13,11.83,-5.91,221.18,19.83,14:58:10.203,8/28/14,1,1,4102.1708N, 8237.8242W,10.48,24777.00,8
176.74,-3.14,-3.26,11.83,-6.89,219.14,20.41,14:58:10.406,8/28/14,1,1,4102.1708N, 8237.8242W,10.48,24777.30,8
176.71,-3.08,-3.42,10.88,-5.91,217.09,20.99,14:58:10.406,8/28/14,1,1,4102.1708N, 8237.8242W,10.19,24777.30,8
176.63,-3.00,-3.51,11.83,-7.88,215.04,19.83,14:58:10.593,8/28/14,1,1,4102.1713N, 8237.8242W,9.90,24777.30,8
176.49,-2.89,-3.51,12.78,-6.89,219.14,19.83,14:58:10.796,8/28/14,1,1,4102.1718N, 8237.8251W,9.90,24777.90,8
176.31,-2.85,-3.51,12.78,-6.89,216.06,20.41,14:58:10.796,8/28/14,1,1,4102.1718N, 8237.8251W,9.88,24777.90,8
176.09,-2.84,-3.57,11.83,-6.89,215.04,20.41,14:58:11.0,8/28/14,1,1,4102.1723N, 8237.8261W,9.60,24778.10,8
175.82,-2.79,-3.49,10.88,-7.88,215.04,19.83,14:58:11.203,8/28/14,1,1,4102.1723N, 8237.8271W,9.60,24778.50,8
175.51,-2.75,-3.45,11.83,-6.89,216.06,19.83,14:58:11.203,8/28/14,1,1,4102.1723N, 8237.8271W,9.11,24778.50,8
175.16,-2.74,-3.39,12.78,-6.89,218.11,24.47,14:58:11.390,8/28/14,1,1,4102.1723N, 8237.8271W,9.11,24778.80,8
174.76,-2.85,-3.23,11.83,-6.89,220.16,15.77,14:58:11.390,8/28/14,1,1,4102.1723N, 8237.8271W,8.77,24778.80,8
174.32,-2.84,-2.98,10.88,-6.89,222.21,19.83,14:58:11.609,8/28/14,1,1,4102.1713N, 8237.8281W,8.45,24780.30,8
173.87,-3.00,-2.79,11.83,-6.89,225.28,19.83,14:58:11.796,8/28/14,1,1,4102.1708N, 8237.8291W,8.45,24780.90,8
173.41,-3.18,-2.65,11.83,-6.89,228.35,23.31,14:58:11.796,8/28/14,1,1,4102.1708N, 8237.8291W,8.47,24780.90,8
172.93,-3.39,-2.42,11.83,-6.89,230.40,19.83,14:58:12.0,8/28/14,1,1,4102.1708N, 8237.8291W,8.29,24782.40,8
172.45,-3.64,-2.31,11.83,-7.88,235.52,19.83,14:58:12.187,8/28/14,1,1,4102.1704N, 8237.8300W,8.29,24783.00,8
172.01,-3.91,-2.31,11.83,-7.88,241.66,19.83,14:58:12.187,8/28/14,1,1,4102.1704N, 8237.8300W,7.98,24783.00,8
171.56,-4.08,-2.32,13.72,-6.89,245.76,21.57,14:58:12.406,8/28/14,1,1,4102.1699N, 8237.8320W,7.98,24783.60,8
171.08,-4.17,-2.29,13.72,-5.91,249.86,19.83,14:58:12.406,8/28/14,1,1,4102.1699N, 8237.8320W,7.97,24783.60,8
170.57,-4.25,-2.31,13.72,-7.88,253.95,19.83,14:58:12.609,8/28/14,1,1,4102.1694N, 8237.8320W,8.00,24784.40,8
170.02,-4.26,-2.31,12.78,-7.88,257.02,22.15,14:58:12.796,8/28/14,1,1,4102.1694N, 8237.8330W,8.00,24785.00,8
169.42,-4.28,-2.25,13.72,-6.89,259.07,21.57,14:58:12.796,8/28/14,1,1,4102.1694N, 8237.8330W,8.01,24785.00,8
168.80,-4.38,-2.27,13.72,-6.89,263.17,19.83,14:58:12.984,8/28/14,1,1,4102.1689N, 8237.8330W,8.01,24785.40,8
168.17,-4.51,-2.32,13.72,-6.89,264.19,19.83,14:58:12.984,8/28/14,1,1,4102.1689N, 8237.8330W,8.03,24785.40,8
167.51,-4.57,-2.40,14.67,-7.88,267.26,20.41,14:58:13.203,8/28/14,1,1,4102.1684N, 8237.8349W,8.10,24785.70,8
166.83,-4.63,-2.55,14.67,-7.88,266.24,21.57,14:58:13.406,8/28/14,1,1,4102.1684N, 8237.8349W,8.10,24786.00,8
166.14,-4.61,-2.69,14.67,-6.89,267.26,19.83,14:58:13.406,8/28/14,1,1,4102.1684N, 8237.8349W,8.14,24786.00,8
165.40,-4.58,-2.73,13.72,-7.88,268.29,19.83,14:58:13.609,8/28/14,1,1,4102.1679N, 8237.8369W,8.33,24786.40,8
164.62,-4.56,-2.73,13.72,-6.89,269.31,24.47,14:58:13.796,8/28/14,1,1,4102.1679N, 8237.8369W,8.33,24786.70,8
163.82,-4.51,-2.82,14.67,-7.88,268.29,19.83,14:58:13.796,8/28/14,1,1,4102.1679N, 8237.8369W,8.30,24786.70,8
163.01,-4.48,-2.84,14.67,-5.91,267.26,19.83,14:58:14.0,8/28/14,1,1,4102.1669N, 8237.8369W,8.30,24787.00,8
162.18,-4.44,-2.87,13.72,-6.89,265.22,22.73,14:58:14.0,8/28/14,1,1,4102.1669N, 8237.8369W,8.28,24787.00,8
161.38,-4.32,-3.07,15.62,-5.91,265.22,20.41,14:58:14.203,8/28/14,1,1,4102.1665N, 8237.8378W,8.27,24787.40,8
160.57,-4.14,-3.11,14.67,-6.89,262.14,19.83,14:58:14.406,8/28/14,1,1,4102.1665N, 8237.8388W,8.27,24787.70,8
159.77,-3.90,-3.08,13.72,-6.89,261.12,19.83,14:58:14.406,8/28/14,1,1,4102.1665N, 8237.8388W,8.28,24787.70,8
158.97,-3.71,-3.12,12.78,-7.88,257.02,20.41,14:58:14.593,8/28/14,1,1,4102.1660N, 8237.8398W,8.33,24788.00,8
