yaw, pitch, roll, rawX (accel), rawY, rawZ, tmp36, Time (HH:MM:SS), Date (MM/DD/YY),GPS Fix, Fix Quality, Latitude, Longitude, knots, altitude, # of satellite fixes
122.90,-6.18,2.20,121.82,-5.65,-1.16,0.00,13:26:11.0,8/28/14,1,0,4120.1142N, 8309.9638W,0.58,0.00,0
120.81,-7.06,-1.41,38.33,15.75,228.35,72.62,13:26:11.203,8/28/14,1,1,4120.1142N, 8309.9638W,0.78,174.20,9
121.48,-6.53,-0.05,10.88,-0.98,229.38,73.20,13:26:11.406,8/28/14,1,1,4120.1147N, 8309.9638W,0.78,174.40,9
121.93,-6.39,-0.06,25.08,4.92,233.47,69.72,13:26:11.406,8/28/14,1,1,4120.1147N, 8309.9638W,0.88,174.40,9
122.13,-5.65,-0.03,31.70,-8.86,235.52,72.62,13:26:11.609,8/28/14,1,1,4120.1152N, 8309.9648W,0.88,174.60,9
122.65,-6.15,-0.20,25.08,2.95,237.57,72.62,13:26:11.609,8/28/14,1,1,4120.1152N, 8309.9648W,0.91,174.60,9
122.76,-6.07,-0.36,28.87,0.00,227.33,72.62,13:26:11.796,8/28/14,1,1,4120.1152N, 8309.9648W,0.82,174.70,10
123.02,-6.34,-0.51,25.08,-2.95,231.42,72.62,13:26:12.0,8/28/14,1,1,4120.1152N, 8309.9648W,0.82,174.80,10
123.38,-6.22,-0.44,22.24,-2.95,232.45,72.62,13:26:12.0,8/28/14,1,1,4120.1152N, 8309.9648W,0.76,174.80,10
123.68,-6.37,-0.38,33.60,-3.94,228.35,72.62,13:26:12.203,8/28/14,1,1,4120.1152N, 8309.9658W,0.76,174.90,10
124.11,-6.19,-0.34,26.97,1.97,232.45,77.26,13:26:12.203,8/28/14,1,1,4120.1152N, 8309.9658W,0.69,174.90,10
124.37,-6.10,-0.33,24.13,0.00,229.38,73.20,13:26:12.406,8/28/14,1,1,4120.1152N, 8309.9658W,0.57,175.00,10
124.63,-6.04,-0.28,22.24,0.98,232.45,72.62,13:26:12.609,8/28/14,1,1,4120.1152N, 8309.9658W,0.57,175.10,10
124.76,-6.37,-0.40,22.24,-1.97,245.76,72.62,13:26:12.609,8/28/14,1,1,4120.1152N, 8309.9658W,0.49,175.10,10
124.91,-6.34,-0.08,23.19,-3.94,230.40,72.62,13:26:12.796,8/28/14,1,1,4120.1152N, 8309.9667W,0.49,175.20,10
125.03,-6.24,-0.15,24.13,-2.95,228.35,72.62,13:26:12.796,8/28/14,1,1,4120.1152N, 8309.9667W,0.38,175.20,10
125.26,-6.12,-0.14,24.13,0.00,228.35,72.62,13:26:13.0,8/28/14,1,1,4120.1152N, 8309.9667W,0.33,175.20,10
125.84,-6.17,-0.26,26.97,2.95,234.50,74.94,13:26:13.203,8/28/14,1,1,4120.1152N, 8309.9677W,0.33,175.30,10
126.20,-6.01,-0.27,24.13,-1.97,230.40,73.78,13:26:13.203,8/28/14,1,1,4120.1152N, 8309.9677W,0.23,175.30,10
126.11,-5.79,-0.32,26.97,1.97,230.40,72.62,13:26:13.406,8/28/14,1,1,4120.1152N, 8309.9677W,0.16,175.30,10
126.03,-5.88,-0.48,24.13,0.00,231.42,72.62,13:26:13.609,8/28/14,1,1,4120.1152N, 8309.9677W,0.16,175.40,10
125.87,-6.40,-0.35,23.19,-4.92,230.40,72.62,13:26:13.609,8/28/14,1,1,4120.1152N, 8309.9677W,0.13,175.40,10
125.81,-6.39,-0.33,30.76,2.95,234.50,72.62,13:26:13.796,8/28/14,1,1,4120.1152N, 8309.9677W,0.13,175.40,10
125.80,-5.91,-0.52,25.08,-5.91,234.50,69.14,13:26:13.796,8/28/14,1,1,4120.1152N, 8309.9677W,0.11,175.40,10
125.90,-6.15,-0.63,19.40,7.88,232.45,70.88,13:26:14.0,8/28/14,1,1,4120.1152N, 8309.9687W,0.08,175.50,10
125.66,-5.94,-0.63,22.24,-3.94,228.35,76.10,13:26:14.203,8/28/14,1,1,4120.1157N, 8309.9687W,0.08,175.50,10
125.41,-6.18,-0.41,24.13,-6.89,226.30,69.14,13:26:14.203,8/28/14,1,1,4120.1157N, 8309.9687W,0.08,175.50,10
125.31,-5.97,-0.17,17.51,0.00,231.42,68.56,13:26:14.406,8/28/14,1,1,4120.1157N, 8309.9687W,0.08,175.50,10
125.08,-6.49,-0.20,28.87,0.98,234.50,72.62,13:26:14.406,8/28/14,1,1,4120.1157N, 8309.9687W,0.11,175.50,10
125.39,-6.62,-0.19,30.76,2.95,231.42,72.62,13:26:14.609,8/28/14,1,1,4120.1157N, 8309.9687W,0.16,175.60,10
126.01,-6.84,0.00,26.97,8.86,231.42,72.62,13:26:14.796,8/28/14,1,1,4120.1157N, 8309.9697W,0.16,175.60,10
126.58,-6.92,0.02,27.92,0.98,231.42,72.62,13:26:14.796,8/28/14,1,1,4120.1157N, 8309.9697W,0.19,175.60,10
126.53,-6.86,-0.17,25.08,0.00,226.30,71.46,13:26:15.0,8/28/14,1,1,4120.1157N, 8309.9697W,0.19,175.60,10
126.43,-8.03,-0.15,35.49,-4.92,229.38,78.42,13:26:15.0,8/28/14,1,1,4120.1157N, 8309.9697W,0.20,175.60,10
126.53,-8.10,-0.29,30.76,1.97,232.45,73.20,13:26:15.203,8/28/14,1,1,4120.1157N, 8309.9697W,0.21,175.60,10
127.24,-8.35,-0.08,34.54,0.00,225.28,72.62,13:26:15.406,8/28/14,1,1,4120.1162N, 8309.9697W,0.21,175.70,10
128.21,-7.58,-0.24,18.45,-8.86,234.50,73.20,13:26:15.406,8/28/14,1,1,4120.1162N, 8309.9697W,0.21,175.70,10
127.83,-8.11,-0.01,40.22,-12.80,226.30,72.62,13:26:15.609,8/28/14,1,1,4120.1166N, 8309.9697W,0.18,175.70,10
127.76,-8.02,-0.09,23.19,1.97,233.47,73.20,13:26:15.796,8/28/14,1,1,4120.1166N, 8309.9697W,0.18,175.70,10
127.62,-8.10,0.01,35.49,-2.95,227.33,72.62,13:26:15.796,8/28/14,1,1,4120.1166N, 8309.9697W,0.15,175.70,10
127.53,-8.27,0.21,30.76,0.98,223.23,74.94,13:26:16.0,8/28/14,1,1,4120.1166N, 8309.9697W,0.15,175.70,10
127.48,-8.29,0.08,37.38,0.00,231.42,73.20,13:26:16.0,8/28/14,1,1,4120.1166N, 8309.9697W,0.13,175.70,10
127.45,-8.36,0.28,30.76,0.00,226.30,73.20,13:26:16.203,8/28/14,1,1,4120.1166N, 8309.9697W,0.12,175.80,10
127.42,-8.37,0.24,34.54,0.00,226.30,72.62,13:26:16.406,8/28/14,1,1,4120.1166N, 8309.9707W,0.12,175.80,10
127.38,-7.97,0.44,22.24,4.92,232.45,73.20,13:26:16.406,8/28/14,1,1,4120.1166N, 8309.9707W,0.13,175.80,10
127.36,-8.17,0.24,31.70,1.97,232.45,73.20,13:26:16.609,8/28/14,1,1,4120.1166N, 8309.9707W,0.13,175.80,10
127.30,-8.09,0.25,34.54,4.92,232.45,73.20,13:26:16.609,8/28/14,1,1,4120.1166N, 8309.9707W,0.14,175.80,10
127.27,-8.34,0.28,33.60,0.98,225.28,73.20,13:26:16.796,8/28/14,1,1,4120.1171N, 8309.9707W,0.16,175.80,10
126.94,-8.17,0.56,40.22,5.91,229.38,78.42,13:26:17.0,8/28/14,1,1,4120.1171N, 8309.9707W,0.16,175.80,10
126.78,-7.82,0.40,22.24,-7.88,233.47,69.72,13:26:17.0,8/28/14,1,1,4120.1171N, 8309.9707W,0.18,175.80,10
126.82,-7.65,0.26,26.03,0.98,230.40,73.20,13:26:17.203,8/28/14,1,1,4120.1171N, 8309.9707W,0.19,175.80,10
126.79,-7.58,0.26,30.76,0.00,224.26,73.20,13:26:17.203,8/28/14,1,1,4120.1171N, 8309.9707W,0.19,175.80,10
126.79,-7.72,0.32,25.08,3.94,235.52,73.20,13:26:17.406,8/28/14,1,1,4120.1171N, 8309.9707W,0.20,175.80,10
126.58,-8.92,0.29,31.70,5.91,230.40,73.20,13:26:17.609,8/28/14,1,1,4120.1176N, 8309.9707W,0.20,175.90,10
126.42,-11.23,-0.28,54.42,-6.89,225.28,73.20,13:26:17.609,8/28/14,1,1,4120.1176N, 8309.9707W,0.21,175.90,10
126.76,-13.04,-0.94,55.36,-6.89,223.23,78.42,13:26:17.796,8/28/14,1,1,4120.1176N, 8309.9707W,0.19,175.90,10
127.08,-11.24,-0.49,39.28,-0.98,226.30,78.42,13:26:18.0,8/28/14,1,1,4120.1176N, 8309.9707W,0.19,175.90,10
127.28,-9.38,-0.23,34.54,-1.97,229.38,73.20,13:26:18.0,8/28/14,1,1,4120.1176N, 8309.9707W,0.19,175.90,10
127.34,-8.07,-0.07,26.03,4.92,231.42,73.20,13:26:18.203,8/28/14,1,1,4120.1176N, 8309.9707W,0.19,175.90,10
127.25,-8.30,0.18,42.11,-0.98,229.38,73.20,13:26:18.203,8/28/14,1,1,4120.1176N, 8309.9707W,0.19,175.90,10
127.22,-8.26,0.20,32.65,1.97,230.40,72.62,13:26:18.406,8/28/14,1,1,4120.1176N, 8309.9707W,0.19,175.90,9
127.24,-6.94,0.27,22.24,2.95,231.42,73.20,13:26:18.609,8/28/14,1,1,4120.1176N, 8309.9707W,0.19,175.90,9
127.17,-6.83,0.30,27.92,-0.98,227.33,73.20,13:26:18.609,8/28/14,1,1,4120.1176N, 8309.9707W,0.17,175.90,9
127.08,-6.13,0.32,26.97,8.86,233.47,78.42,13:26:18.796,8/28/14,1,1,4120.1176N, 8309.9697W,0.17,175.90,9
126.98,-6.15,0.11,17.51,0.98,236.54,74.36,13:26:18.796,8/28/14,1,1,4120.1176N, 8309.9697W,0.14,175.90,9
126.80,-5.65,-0.02,26.03,2.95,234.50,72.62,13:26:19.0,8/28/14,1,1,4120.1176N, 8309.9697W,0.12,176.00,9
126.76,-5.91,0.52,15.62,-7.88,228.35,73.20,13:26:19.203,8/28/14,1,1,4120.1176N, 8309.9697W,0.12,176.00,9
126.79,-6.22,0.56,26.97,12.80,232.45,73.20,13:26:19.203,8/28/14,1,1,4120.1176N, 8309.9697W,0.09,176.00,9
126.59,-6.75,0.44,26.97,2.95,235.52,73.20,13:26:19.406,8/28/14,1,1,4120.1176N, 8309.9697W,0.08,176.00,9
126.61,-7.32,0.73,38.33,0.98,232.45,73.20,13:26:19.609,8/28/14,1,1,4120.1176N, 8309.9697W,0.08,176.00,9
126.46,-8.71,0.18,38.33,5.91,228.35,75.52,13:26:19.609,8/28/14,1,1,4120.1176N, 8309.9697W,0.08,176.00,9
126.62,-9.96,-0.12,50.63,-2.95,222.21,74.94,13:26:19.796,8/28/14,1,1,4120.1176N, 8309.9697W,0.08,176.00,9
126.78,-8.64,0.16,15.62,0.98,233.47,72.62,13:26:19.796,8/28/14,1,1,4120.1176N, 8309.9697W,0.07,176.00,9
126.73,-6.60,0.95,39.28,-5.91,226.30,73.20,13:26:20.0,8/28/14,1,1,4120.1176N, 8309.9697W,0.07,176.00,9
126.67,-7.66,0.54,21.29,0.00,231.42,73.20,13:26:20.203,8/28/14,1,1,4120.1176N, 8309.9697W,0.07,176.00,9
126.61,-6.77,0.91,28.87,0.00,228.35,73.20,13:26:20.203,8/28/14,1,1,4120.1176N, 8309.9697W,0.07,176.00,9
126.55,-7.51,0.66,29.81,1.97,231.42,73.20,13:26:20.406,8/28/14,1,1,4120.1176N, 8309.9697W,0.07,176.00,9
126.52,-7.04,0.63,30.76,-1.97,231.42,73.20,13:26:20.406,8/28/14,1,1,4120.1176N, 8309.9697W,0.08,176.00,9
126.46,-7.25,0.56,28.87,5.91,230.40,78.42,13:26:20.609,8/28/14,1,1,4120.1176N, 8309.9697W,0.12,176.00,9
126.40,-7.50,0.31,29.81,2.95,224.26,74.94,13:26:20.796,8/28/14,1,1,4120.1176N, 8309.9707W,0.12,176.00,9
126.38,-6.79,0.63,26.97,12.80,227.33,73.20,13:26:20.796,8/28/14,1,1,4120.1176N, 8309.9707W,0.13,176.00,9
126.42,-6.57,0.54,26.97,11.82,229.38,73.20,13:26:21.0,8/28/14,1,1,4120.1176N, 8309.9707W,0.13,176.00,10
126.49,-6.06,0.48,8.04,-9.85,226.30,73.20,13:26:21.0,8/28/14,1,1,4120.1176N, 8309.9707W,0.14,176.00,10
126.12,-5.80,0.61,22.24,-3.94,233.47,73.20,13:26:21.203,8/28/14,1,1,4120.1176N, 8309.9707W,0.16,176.00,10
126.15,-6.02,0.61,21.29,2.95,232.45,78.42,13:26:21.406,8/28/14,1,1,4120.1176N, 8309.9707W,0.16,176.00,10
125.94,-5.79,0.86,21.29,1.97,225.28,78.42,13:26:21.406,8/28/14,1,1,4120.1176N, 8309.9707W,0.17,176.00,10
126.00,-5.47,0.60,26.97,-4.92,235.52,74.94,13:26:21.609,8/28/14,1,1,4120.1176N, 8309.9707W,0.19,176.00,10
126.16,-5.45,0.61,13.72,4.92,230.40,73.20,13:26:21.796,8/28/14,1,1,4120.1176N, 8309.9707W,0.19,176.00,10
125.99,-5.73,0.50,28.87,1.97,233.47,73.20,13:26:21.796,8/28/14,1,1,4120.1176N, 8309.9707W,0.20,176.00,10
125.77,-5.58,1.03,18.45,1.97,234.50,73.20,13:26:22.0,8/28/14,1,1,4120.1176N, 8309.9707W,0.20,176.10,10
125.64,-5.61,0.91,23.19,-2.95,230.40,73.20,13:26:22.0,8/28/14,1,1,4120.1176N, 8309.9707W,0.21,176.10,10
125.62,-5.46,0.97,17.51,4.92,230.40,73.78,13:26:22.203,8/28/14,1,1,4120.1176N, 8309.9707W,0.22,176.10,10
125.49,-5.45,1.05,19.40,3.94,228.35,78.42,13:26:22.406,8/28/14,1,1,4120.1176N, 8309.9707W,0.22,176.10,10
125.26,-5.71,0.92,29.81,4.92,233.47,79.00,13:26:22.406,8/28/14,1,1,4120.1176N, 8309.9707W,0.23,176.10,10
125.11,-6.61,0.53,39.28,2.95,230.40,73.20,13:26:22.609,8/28/14,1,1,4120.1176N, 8309.9707W,0.23,176.10,10
125.16,-6.96,0.21,25.08,9.85,231.42,70.30,13:26:22.609,8/28/14,1,1,4120.1176N, 8309.9707W,0.23,176.10,10
125.28,-7.24,0.30,23.19,1.97,234.50,73.20,13:26:22.796,8/28/14,1,1,4120.1176N, 8309.9707W,0.23,176.10,10
125.42,-6.61,0.44,34.54,0.98,230.40,73.20,13:26:23.0,8/28/14,1,1,4120.1176N, 8309.9707W,0.23,176.10,10
125.58,-5.72,0.01,17.51,7.88,234.50,73.20,13:26:23.0,8/28/14,1,1,4120.1176N, 8309.9707W,0.23,176.10,10
125.54,-6.22,0.03,23.19,-3.94,226.30,78.42,13:26:23.203,8/28/14,1,1,4120.1176N, 8309.9707W,0.23,176.10,10
125.56,-5.65,-0.05,20.35,-3.94,232.45,70.88,13:26:23.406,8/28/14,1,1,4120.1176N, 8309.9707W,0.23,176.10,10
125.64,-6.06,-0.10,26.03,-1.97,228.35,73.20,13:26:23.406,8/28/14,1,1,4120.1176N, 8309.9707W,0.24,176.10,10
125.60,-5.76,0.29,25.08,-3.94,228.35,73.20,13:26:23.609,8/28/14,1,1,4120.1176N, 8309.9707W,0.24,176.10,10
125.70,-6.32,0.26,25.08,0.00,232.45,73.20,13:26:23.609,8/28/14,1,1,4120.1176N, 8309.9707W,0.22,176.10,10
125.59,-6.00,0.10,38.33,-2.95,225.28,73.20,13:26:23.796,8/28/14,1,1,4120.1176N, 8309.9707W,0.22,176.10,10
125.70,-5.87,0.34,7.10,3.94,230.40,73.20,13:26:24.0,8/28/14,1,1,4120.1176N, 8309.9707W,0.22,176.10,10
125.58,-5.85,0.41,41.17,-3.94,225.28,77.26,13:26:24.0,8/28/14,1,1,4120.1176N, 8309.9707W,0.21,176.10,10
125.60,-6.20,0.40,24.13,0.98,238.59,73.78,13:26:24.203,8/28/14,1,1,4120.1176N, 8309.9697W,0.21,176.10,10
125.60,-6.08,0.40,18.45,4.92,236.54,73.78,13:26:24.203,8/28/14,1,1,4120.1176N, 8309.9697W,0.21,176.10,10
125.53,-7.17,0.74,26.97,-5.91,230.40,73.20,13:26:24.406,8/28/14,1,1,4120.1176N, 8309.9697W,0.19,176.10,10
125.62,-6.94,0.50,30.76,0.00,233.47,73.20,13:26:24.609,8/28/14,1,1,4120.1176N, 8309.9697W,0.19,176.10,10
125.70,-6.57,0.24,21.29,7.88,231.42,73.20,13:26:24.609,8/28/14,1,1,4120.1176N, 8309.9697W,0.16,176.10,10
125.75,-6.72,0.08,26.03,-2.95,228.35,73.20,13:26:24.796,8/28/14,1,1,4120.1176N, 8309.9697W,0.16,176.10,10
125.82,-6.14,-0.03,27.92,4.92,231.42,78.42,13:26:24.796,8/28/14,1,1,4120.1176N, 8309.9697W,0.15,176.10,10
125.84,-6.18,-0.19,23.19,-0.98,231.42,73.78,13:26:25.0,8/28/14,1,1,4120.1176N, 8309.9697W,0.14,176.10,10
125.83,-6.19,-0.12,24.13,-0.98,231.42,73.20,13:26:25.203,8/28/14,1,1,4120.1176N, 8309.9697W,0.14,176.10,10
125.85,-6.22,-0.02,24.13,0.98,232.45,73.20,13:26:25.203,8/28/14,1,1,4120.1176N, 8309.9697W,0.13,176.10,10
125.86,-6.20,-0.06,26.03,0.98,232.45,73.20,13:26:25.406,8/28/14,1,1,4120.1176N, 8309.9697W,0.13,176.10,10
125.85,-6.18,-0.08,23.19,-1.97,229.38,73.20,13:26:25.609,8/28/14,1,1,4120.1176N, 8309.9697W,0.13,176.10,10
125.83,-6.34,0.11,25.08,0.98,232.45,73.78,13:26:25.609,8/28/14,1,1,4120.1176N, 8309.9697W,0.13,176.10,10
125.82,-6.69,0.37,25.08,0.00,228.35,78.42,13:26:25.796,8/28/14,1,1,4120.1176N, 8309.9697W,0.13,176.10,10
125.83,-6.81,0.39,26.97,0.98,235.52,74.94,13:26:25.796,8/28/14,1,1,4120.1176N, 8309.9697W,0.14,176.10,10
125.85,-7.05,0.34,26.03,0.98,232.45,73.78,13:26:26.0,8/28/14,1,1,4120.1176N, 8309.9697W,0.13,176.10,10
125.89,-6.86,0.34,26.03,1.97,231.42,73.20,13:26:26.203,8/28/14,1,1,4120.1176N, 8309.9697W,0.13,176.10,10
126.00,-6.30,-0.13,25.08,5.91,231.42,73.20,13:26:26.203,8/28/14,1,1,4120.1176N, 8309.9697W,0.13,176.10,10
125.94,-6.11,0.09,16.56,-5.91,225.28,73.20,13:26:26.406,8/28/14,1,1,4120.1176N, 8309.9697W,0.13,176.10,10
125.72,-6.39,0.46,29.81,13.78,232.45,73.20,13:26:26.406,8/28/14,1,1,4120.1176N, 8309.9697W,0.13,176.10,10
125.70,-6.80,0.56,26.97,2.95,232.45,73.78,13:26:26.609,8/28/14,1,1,4120.1176N, 8309.9697W,0.11,176.10,10
125.68,-6.96,0.60,31.70,3.94,229.38,78.42,13:26:26.796,8/28/14,1,1,4120.1176N, 8309.9697W,0.11,176.10,10
125.61,-7.11,0.57,26.97,8.86,232.45,74.36,13:26:26.796,8/28/14,1,1,4120.1176N, 8309.9697W,0.10,176.10,10
125.61,-7.46,0.50,27.92,4.92,228.35,73.20,13:26:27.0,8/28/14,1,1,4120.1176N, 8309.9697W,0.11,176.10,10
125.70,-8.14,0.30,46.85,6.89,232.45,73.20,13:26:27.0,8/28/14,1,1,4120.1176N, 8309.9697W,0.11,176.10,10
125.79,-5.74,0.04,9.94,-9.85,224.26,73.20,13:26:27.203,8/28/14,1,1,4120.1176N, 8309.9697W,0.12,176.10,10
125.75,-4.41,0.55,20.35,11.82,234.50,73.20,13:26:27.406,8/28/14,1,1,4120.1176N, 8309.9697W,0.12,176.10,10
125.62,-5.03,0.00,22.24,-1.97,233.47,73.20,13:26:27.406,8/28/14,1,1,4120.1176N, 8309.9697W,0.12,176.10,10
125.55,-4.72,0.42,15.62,-2.95,229.38,77.84,13:26:27.609,8/28/14,1,1,4120.1176N, 8309.9697W,0.14,176.10,10
125.45,-5.12,0.26,17.51,0.00,233.47,78.42,13:26:27.796,8/28/14,1,1,4120.1181N, 8309.9697W,0.14,176.10,10
125.36,-4.81,0.38,23.19,3.94,233.47,74.94,13:26:27.796,8/28/14,1,1,4120.1181N, 8309.9697W,0.16,176.10,10
125.31,-4.98,0.20,24.13,2.95,234.50,73.20,13:26:28.0,8/28/14,1,1,4120.1181N, 8309.9697W,0.16,176.10,10
125.29,-4.92,0.36,16.56,-1.97,234.50,73.20,13:26:28.0,8/28/14,1,1,4120.1181N, 8309.9697W,0.18,176.10,10
125.25,-5.02,0.48,15.62,-0.98,230.40,73.20,13:26:28.203,8/28/14,1,1,4120.1181N, 8309.9697W,0.20,176.10,10
125.15,-5.42,0.69,23.19,7.88,231.42,73.20,13:26:28.406,8/28/14,1,1,4120.1181N, 8309.9697W,0.20,176.10,10
125.08,-6.02,0.86,26.03,6.89,228.35,73.20,13:26:28.406,8/28/14,1,1,4120.1181N, 8309.9697W,0.21,176.10,10
125.04,-6.20,1.03,27.92,6.89,230.40,78.42,13:26:28.609,8/28/14,1,1,4120.1181N, 8309.9697W,0.21,176.10,10
125.06,-6.44,0.95,32.65,7.88,232.45,79.00,13:26:28.609,8/28/14,1,1,4120.1181N, 8309.9697W,0.23,176.10,10
125.14,-6.53,1.00,33.60,13.78,234.50,73.20,13:26:28.796,8/28/14,1,1,4120.1176N, 8309.9697W,0.24,176.10,10
125.35,-5.72,0.86,10.88,-10.83,226.30,73.20,13:26:29.0,8/28/14,1,1,4120.1176N, 8309.9697W,0.24,176.10,10
125.30,-5.20,0.27,24.13,4.92,232.45,73.20,13:26:29.0,8/28/14,1,1,4120.1176N, 8309.9697W,0.22,176.10,10
125.10,-4.54,-0.20,17.51,0.00,230.40,73.20,13:26:29.203,8/28/14,1,1,4120.1176N, 8309.9697W,0.21,176.20,10
125.03,-5.02,0.19,13.72,-5.91,228.35,73.20,13:26:29.406,8/28/14,1,1,4120.1176N, 8309.9697W,0.21,176.20,10
125.04,-5.24,0.34,21.29,0.00,229.38,77.26,13:26:29.406,8/28/14,1,1,4120.1176N, 8309.9697W,0.21,176.20,10
125.11,-5.97,0.86,32.65,13.78,234.50,73.78,13:26:29.609,8/28/14,1,1,4120.1176N, 8309.9697W,0.20,176.20,10
125.18,-6.85,0.78,26.03,5.91,229.38,74.36,13:26:29.796,8/28/14,1,1,4120.1176N, 8309.9697W,0.21,176.20,10
125.30,-7.35,0.85,23.19,9.85,231.42,73.78,13:26:30.0,8/28/14,1,1,4120.1176N, 8309.9697W,0.21,176.20,10
125.36,-7.42,0.79,34.54,2.95,233.47,73.20,13:26:30.203,8/28/14,1,1,4120.1176N, 8309.9697W,0.21,176.20,10
125.41,-7.49,0.73,43.06,2.95,226.30,73.20,13:26:30.203,8/28/14,1,1,4120.1176N, 8309.9697W,0.22,176.20,10
125.63,-5.89,0.31,2.37,0.00,229.38,73.78,13:26:30.406,8/28/14,1,1,4120.1176N, 8309.9697W,0.21,176.20,10
125.55,-4.47,0.56,22.24,5.91,234.50,78.42,13:26:30.609,8/28/14,1,1,4120.1176N, 8309.9697W,0.21,176.20,10
125.48,-5.77,-0.08,19.40,-1.97,227.33,73.20,13:26:30.609,8/28/14,1,1,4120.1176N, 8309.9697W,0.21,176.20,10
125.45,-5.99,1.01,39.28,10.83,233.47,73.20,13:26:30.796,8/28/14,1,1,4120.1176N, 8309.9697W,0.21,176.20,10
125.65,-7.15,0.55,26.03,4.92,232.45,73.20,13:26:30.796,8/28/14,1,1,4120.1176N, 8309.9697W,0.19,176.20,10
126.41,-7.71,0.30,41.17,-4.92,228.35,73.20,13:26:31.0,8/28/14,1,1,4120.1176N, 8309.9697W,0.19,176.20,10
127.20,-7.44,0.67,14.67,2.95,228.35,73.20,13:26:31.203,8/28/14,1,1,4120.1176N, 8309.9697W,0.19,176.20,10
127.00,-7.63,0.85,40.22,-11.82,233.47,73.20,13:26:31.203,8/28/14,1,1,4120.1176N, 8309.9697W,0.17,176.20,10
126.96,-7.68,0.69,24.13,0.00,233.47,78.42,13:26:31.406,8/28/14,1,1,4120.1176N, 8309.9697W,0.16,176.20,10
126.93,-8.02,0.44,30.76,-1.97,230.40,74.94,13:26:31.609,8/28/14,1,1,4120.1176N, 8309.9697W,0.16,176.20,10
126.84,-7.25,0.76,31.70,0.00,229.38,73.78,13:26:31.609,8/28/14,1,1,4120.1176N, 8309.9697W,0.15,176.20,10
126.79,-7.85,0.44,26.03,5.91,229.38,73.20,13:26:31.796,8/28/14,1,1,4120.1176N, 8309.9697W,0.15,176.20,10
126.79,-7.81,0.31,57.26,-2.95,227.33,73.20,13:26:31.796,8/28/14,1,1,4120.1176N, 8309.9697W,0.13,176.20,10
126.71,-4.53,0.48,0.47,2.95,232.45,73.20,13:26:32.0,8/28/14,1,1,4120.1176N, 8309.9687W,0.13,176.20,10
126.37,-4.32,0.18,20.35,-0.98,231.42,73.20,13:26:32.203,8/28/14,1,1,4120.1176N, 8309.9687W,0.13,176.20,10
126.31,-4.94,-0.01,23.19,4.92,231.42,73.78,13:26:32.203,8/28/14,1,1,4120.1176N, 8309.9687W,0.14,176.20,10
126.24,-5.01,0.07,20.35,-0.98,231.42,78.42,13:26:32.406,8/28/14,1,1,4120.1176N, 8309.9687W,0.14,176.20,10
126.13,-5.08,0.05,17.51,-0.98,231.42,73.78,13:26:32.406,8/28/14,1,1,4120.1176N, 8309.9687W,0.14,176.20,10
126.00,-4.75,0.15,17.51,2.95,229.38,73.20,13:26:32.609,8/28/14,1,1,4120.1176N, 8309.9687W,0.14,176.20,10
125.90,-5.53,-0.08,25.08,-2.95,230.40,73.78,13:26:32.796,8/28/14,1,1,4120.1176N, 8309.9687W,0.14,176.20,10
125.86,-5.23,0.10,17.51,2.95,231.42,73.78,13:26:32.796,8/28/14,1,1,4120.1176N, 8309.9687W,0.12,176.20,10
125.81,-5.38,0.10,22.24,0.00,232.45,73.20,13:26:33.0,8/28/14,1,1,4120.1176N, 8309.9687W,0.11,176.20,10
125.79,-5.26,0.06,22.24,0.98,232.45,73.20,13:26:33.203,8/28/14,1,1,4120.1176N, 8309.9687W,0.11,176.20,10
125.77,-5.24,0.04,20.35,-0.98,229.38,78.42,13:26:33.203,8/28/14,1,1,4120.1176N, 8309.9687W,0.11,176.20,10
125.73,-5.01,0.10,20.35,-0.98,233.47,78.42,13:26:33.406,8/28/14,1,1,4120.1176N, 8309.9687W,0.11,176.20,10
125.67,-4.85,0.12,22.24,0.00,232.45,73.78,13:26:33.406,8/28/14,1,1,4120.1176N, 8309.9687W,0.11,176.20,10
125.64,-4.88,0.00,18.45,1.97,232.45,73.20,13:26:33.609,8/28/14,1,1,4120.1176N, 8309.9687W,0.12,176.20,10
125.60,-4.88,0.01,20.35,0.00,231.42,73.20,13:26:33.796,8/28/14,1,1,4120.1176N, 8309.9687W,0.12,176.20,10
125.57,-4.87,0.01,18.45,0.98,232.45,73.20,13:26:33.796,8/28/14,1,1,4120.1176N, 8309.9687W,0.12,176.20,10
125.55,-4.87,0.02,20.35,0.00,232.45,73.20,13:26:34.0,8/28/14,1,1,4120.1176N, 8309.9687W,0.12,176.20,10
125.53,-4.83,0.01,19.40,0.98,231.42,76.68,13:26:34.0,8/28/14,1,1,4120.1176N, 8309.9687W,0.13,176.20,10
125.50,-4.82,0.06,18.45,0.98,233.47,79.00,13:26:34.203,8/28/14,1,1,4120.1176N, 8309.9687W,0.15,176.20,10
125.47,-4.81,0.05,19.40,0.00,232.45,74.36,13:26:34.406,8/28/14,1,1,4120.1176N, 8309.9687W,0.15,176.20,10
125.44,-4.72,0.08,16.56,0.00,229.38,73.20,13:26:34.406,8/28/14,1,1,4120.1176N, 8309.9687W,0.16,176.20,10
125.40,-4.82,0.20,21.29,0.98,233.47,73.20,13:26:34.609,8/28/14,1,1,4120.1176N, 8309.9687W,0.16,176.20,10
125.39,-4.93,0.10,22.24,0.00,232.45,73.20,13:26:34.609,8/28/14,1,1,4120.1176N, 8309.9687W,0.17,176.20,10
125.37,-4.27,0.25,15.62,6.89,233.47,73.20,13:26:34.796,8/28/14,1,1,4120.1176N, 8309.9687W,0.20,176.20,10
125.32,-4.65,0.09,22.24,-0.98,231.42,73.20,13:26:35.0,8/28/14,1,1,4120.1176N, 8309.9687W,0.20,176.20,10
125.30,-4.61,0.20,17.51,0.98,232.45,77.26,13:26:35.0,8/28/14,1,1,4120.1176N, 8309.9687W,0.23,176.20,10
125.28,-4.67,0.14,18.45,0.98,233.47,73.20,13:26:35.203,8/28/14,1,1,4120.1176N, 8309.9677W,0.24,176.20,10
125.26,-4.56,0.12,19.40,0.00,232.45,73.78,13:26:35.406,8/28/14,1,1,4120.1176N, 8309.9677W,0.24,176.20,10
125.24,-4.71,0.12,17.51,0.98,231.42,73.20,13:26:35.406,8/28/14,1,1,4120.1176N, 8309.9677W,0.23,176.20,10
125.23,-4.62,0.14,18.45,0.98,232.45,73.20,13:26:35.609,8/28/14,1,1,4120.1176N, 8309.9677W,0.23,176.20,10
125.22,-4.71,0.09,20.35,0.98,230.40,73.20,13:26:35.609,8/28/14,1,1,4120.1176N, 8309.9677W,0.23,176.20,10
125.22,-4.67,0.09,19.40,0.98,232.45,73.20,13:26:35.796,8/28/14,1,1,4120.1176N, 8309.9677W,0.22,176.20,10
125.24,-4.73,0.06,19.40,0.00,231.42,73.20,13:26:36.0,8/28/14,1,1,4120.1176N, 8309.9677W,0.22,176.20,10
125.24,-4.68,0.04,17.51,1.97,231.42,77.26,13:26:36.0,8/28/14,1,1,4120.1176N, 8309.9677W,0.21,176.20,10
125.24,-4.71,0.09,19.40,0.98,230.40,74.94,13:26:36.203,8/28/14,1,1,4120.1176N, 8309.9677W,0.21,176.20,10
125.23,-4.69,0.15,17.51,0.00,231.42,73.20,13:26:36.203,8/28/14,1,1,4120.1176N, 8309.9677W,0.18,176.20,10
125.21,-4.65,0.16,18.45,0.00,231.42,73.20,13:26:36.406,8/28/14,1,1,4120.1176N, 8309.9677W,0.15,176.20,10
125.22,-4.62,0.09,18.45,0.98,231.42,73.20,13:26:36.609,8/28/14,1,1,4120.1176N, 8309.9677W,0.15,176.20,10
125.21,-4.58,0.12,18.45,0.00,231.42,73.20,13:26:36.609,8/28/14,1,1,4120.1176N, 8309.9677W,0.12,176.20,10
125.19,-4.60,0.13,16.56,0.98,231.42,73.78,13:26:36.796,8/28/14,1,1,4120.1176N, 8309.9677W,0.12,176.20,10
125.18,-4.63,0.11,19.40,0.98,231.42,78.42,13:26:36.796,8/28/14,1,1,4120.1176N, 8309.9677W,0.10,176.20,10
125.19,-4.61,0.06,18.45,0.98,231.42,78.42,13:26:37.0,8/28/14,1,1,4120.1176N, 8309.9677W,0.10,176.20,10
125.19,-4.51,0.15,18.45,0.00,230.40,73.78,13:26:37.203,8/28/14,1,1,4120.1176N, 8309.9677W,0.10,176.20,10
125.17,-4.59,0.12,18.45,0.98,232.45,73.20,13:26:37.203,8/28/14,1,1,4120.1176N, 8309.9677W,0.07,176.20,10
125.16,-4.61,0.16,18.45,0.00,230.40,73.20,13:26:37.406,8/28/14,1,1,4120.1176N, 8309.9677W,0.05,176.20,10
125.16,-4.62,0.11,18.45,0.98,233.47,73.20,13:26:37.609,8/28/14,1,1,4120.1171N, 8309.9677W,0.05,176.10,10
125.16,-4.58,0.17,18.45,0.98,231.42,73.20,13:26:37.609,8/28/14,1,1,4120.1171N, 8309.9677W,0.05,176.10,10
125.16,-4.57,0.15,19.40,0.98,233.47,73.78,13:26:37.796,8/28/14,1,1,4120.1171N, 8309.9677W,0.05,176.10,10
125.15,-4.64,0.11,20.35,1.97,233.47,78.42,13:26:37.796,8/28/14,1,1,4120.1171N, 8309.9677W,0.06,176.10,10
125.16,-4.63,0.13,18.45,0.00,232.45,74.36,13:26:38.0,8/28/14,1,1,4120.1171N, 8309.9677W,0.07,176.10,10
125.17,-4.58,0.11,17.51,0.00,230.40,73.20,13:26:38.203,8/28/14,1,1,4120.1171N, 8309.9677W,0.07,176.10,10
125.17,-4.57,0.10,18.45,0.00,230.40,73.20,13:26:38.203,8/28/14,1,1,4120.1171N, 8309.9677W,0.09,176.10,10
125.16,-4.57,0.09,19.40,0.98,232.45,73.20,13:26:38.406,8/28/14,1,1,4120.1166N, 8309.9677W,0.09,176.10,10
125.17,-4.61,0.10,17.51,0.00,231.42,73.20,13:26:38.406,8/28/14,1,1,4120.1166N, 8309.9677W,0.09,176.10,10
125.17,-4.54,0.10,18.45,0.98,230.40,73.20,13:26:38.609,8/28/14,1,1,4120.1166N, 8309.9677W,0.08,176.10,10
125.16,-4.55,0.08,17.51,0.98,232.45,73.78,13:26:38.796,8/28/14,1,1,4120.1166N, 8309.9677W,0.08,176.10,10
125.16,-4.56,0.14,18.45,0.98,231.42,78.42,13:26:38.796,8/28/14,1,1,4120.1166N, 8309.9677W,0.07,176.10,10
125.15,-4.54,0.13,18.45,0.98,232.45,74.36,13:26:39.0,8/28/14,1,1,4120.1166N, 8309.9677W,0.06,176.10,10
125.15,-4.55,0.12,18.45,0.00,232.45,73.20,13:26:39.203,8/28/14,1,1,4120.1166N, 8309.9677W,0.06,176.10,10
125.15,-4.53,0.13,17.51,0.00,230.40,73.20,13:26:39.203,8/28/14,1,1,4120.1166N, 8309.9677W,0.07,176.10,10
125.13,-4.56,0.14,18.45,0.00,232.45,73.20,13:26:39.406,8/28/14,1,1,4120.1166N, 8309.9677W,0.07,176.10,10
125.13,-4.54,0.15,17.51,0.00,231.42,73.20,13:26:39.406,8/28/14,1,1,4120.1166N, 8309.9677W,0.06,176.10,10
125.13,-4.53,0.11,19.40,0.98,232.45,73.20,13:26:39.609,8/28/14,1,1,4120.1166N, 8309.9677W,0.06,176.10,10
125.13,-4.51,0.11,16.56,0.00,230.40,78.42,13:26:39.796,8/28/14,1,1,4120.1166N, 8309.9677W,0.06,176.10,10
125.12,-4.52,0.14,18.45,0.98,232.45,78.42,13:26:39.796,8/28/14,1,1,4120.1166N, 8309.9677W,0.06,176.10,10
125.12,-4.48,0.17,17.51,0.98,233.47,73.78,13:26:40.0,8/28/14,1,1,4120.1166N, 8309.9677W,0.06,176.10,10
125.11,-4.48,0.12,17.51,-0.98,233.47,73.20,13:26:40.0,8/28/14,1,1,4120.1166N, 8309.9677W,0.06,176.10,10
125.10,-4.48,0.16,19.40,0.98,231.42,73.20,13:26:40.203,8/28/14,1,1,4120.1166N, 8309.9677W,0.06,176.10,10
125.10,-4.52,0.13,18.45,0.00,230.40,73.20,13:26:40.406,8/28/14,1,1,4120.1166N, 8309.9677W,0.06,176.10,10
125.10,-4.54,0.12,17.51,0.00,231.42,73.78,13:26:40.406,8/28/14,1,1,4120.1166N, 8309.9677W,0.05,176.10,10
125.10,-4.56,0.13,26.97,-1.97,236.54,73.20,13:26:40.609,8/28/14,1,1,4120.1166N, 8309.9677W,0.05,176.10,10
125.03,-2.15,0.48,-2.37,6.89,234.50,79.00,13:26:40.609,8/28/14,1,1,4120.1166N, 8309.9677W,0.04,176.10,10
124.38,1.46,-0.69,-7.10,-15.75,227.33,72.62,13:26:40.796,8/28/14,1,1,4120.1166N, 8309.9677W,0.04,176.10,10
124.10,2.35,-1.62,-12.78,3.94,230.40,73.78,13:26:41.0,8/28/14,1,1,4120.1166N, 8309.9677W,0.04,176.10,10
123.69,2.54,-1.11,-3.31,-1.97,240.64,73.78,13:26:41.0,8/28/14,1,1,4120.1166N, 8309.9677W,0.04,176.10,10
123.48,3.16,-1.58,-8.99,-7.88,232.45,72.62,13:26:41.203,8/28/14,1,1,4120.1166N, 8309.9677W,0.04,176.10,10
123.14,4.84,-1.94,-26.97,-9.85,228.35,73.20,13:26:41.406,8/28/14,1,1,4120.1166N, 8309.9677W,0.04,176.10,10
122.63,5.00,-1.86,-13.72,-5.91,232.45,73.78,13:26:41.406,8/28/14,1,1,4120.1166N, 8309.9677W,0.04,176.10,10
122.23,5.19,-1.86,-17.51,-8.86,235.52,77.26,13:26:41.609,8/28/14,1,1,4120.1166N, 8309.9677W,0.04,176.10,10
121.81,6.92,-2.12,-32.65,-10.83,230.40,76.68,13:26:41.609,8/28/14,1,1,4120.1166N, 8309.9677W,0.05,176.10,10
121.24,9.13,-2.38,-59.15,-5.91,217.09,73.78,13:26:41.796,8/28/14,1,1,4120.1166N, 8309.9677W,0.06,176.10,10
120.44,8.83,-2.29,-27.92,-7.88,216.06,73.78,13:26:42.0,8/28/14,1,1,4120.1162N, 8309.9687W,0.06,176.10,10
119.81,6.26,-2.17,-8.99,-9.85,233.47,73.78,13:26:42.0,8/28/14,1,1,4120.1162N, 8309.9687W,0.08,176.10,10
119.73,4.04,-1.58,-15.62,-4.92,234.50,73.20,13:26:42.203,8/28/14,1,1,4120.1162N, 8309.9687W,0.08,176.10,10
119.78,5.07,-1.79,-28.87,-7.88,229.38,73.78,13:26:42.203,8/28/14,1,1,4120.1162N, 8309.9687W,0.09,176.10,10
119.70,4.92,-1.69,-14.67,-5.91,237.57,73.78,13:26:42.406,8/28/14,1,1,4120.1162N, 8309.9687W,0.10,176.20,10
119.68,4.61,-1.74,-18.45,9.85,226.30,74.94,13:26:42.609,8/28/14,1,1,4120.1162N, 8309.9687W,0.10,176.20,10
119.63,3.58,-1.75,-33.60,0.00,244.74,76.68,13:26:42.609,8/28/14,1,1,4120.1162N, 8309.9687W,0.12,176.20,10
119.67,3.20,-1.35,-14.67,-7.88,237.57,74.36,13:26:42.796,8/28/14,1,1,4120.1162N, 8309.9687W,0.12,176.20,10
120.08,-1.27,0.09,28.87,6.89,246.78,73.78,13:26:42.796,8/28/14,1,1,4120.1162N, 8309.9687W,0.15,176.20,10
120.56,-1.35,0.12,1.42,-2.95,232.45,73.78,13:26:43.0,8/28/14,1,1,4120.1162N, 8309.9687W,0.18,176.10,10
120.97,0.52,-0.56,-15.62,-5.91,225.28,73.78,13:26:43.203,8/28/14,1,1,4120.1162N, 8309.9687W,0.18,176.10,10
121.25,-1.01,-0.01,11.83,0.98,238.59,73.78,13:26:43.203,8/28/14,1,1,4120.1162N, 8309.9687W,0.17,176.10,10
121.57,-1.92,0.31,-0.47,-0.98,229.38,73.78,13:26:43.406,8/28/14,1,1,4120.1162N, 8309.9687W,0.18,176.20,10
121.82,-2.73,0.43,6.15,0.98,230.40,78.42,13:26:43.609,8/28/14,1,1,4120.1162N, 8309.9687W,0.18,176.20,10
122.07,-4.77,0.32,30.76,-8.86,228.35,78.42,13:26:43.609,8/28/14,1,1,4120.1162N, 8309.9687W,0.17,176.20,10
122.57,-4.41,0.25,12.78,10.83,236.54,73.78,13:26:43.796,8/28/14,1,1,4120.1162N, 8309.9687W,0.17,176.20,10
122.90,-3.59,0.41,11.83,-1.97,231.42,73.78,13:26:43.796,8/28/14,1,1,4120.1162N, 8309.9687W,0.15,176.20,10
123.12,-4.25,0.32,23.19,-1.97,231.42,73.78,13:26:44.0,8/28/14,1,1,4120.1157N, 8309.9687W,0.16,176.20,10
123.38,-3.70,0.39,10.88,3.94,233.47,73.78,13:26:44.203,8/28/14,1,1,4120.1157N, 8309.9687W,0.16,176.20,10
123.55,-3.99,0.19,20.35,0.00,232.45,73.78,13:26:44.203,8/28/14,1,1,4120.1157N, 8309.9687W,0.16,176.20,10
123.74,-4.09,0.17,13.72,0.98,231.42,73.78,13:26:44.406,8/28/14,1,1,4120.1157N, 8309.9687W,0.16,176.20,10
123.88,-3.79,0.33,28.87,2.95,235.52,78.42,13:26:44.406,8/28/14,1,1,4120.1157N, 8309.9687W,0.14,176.20,10
124.07,-2.66,0.14,8.04,16.74,242.69,74.94,13:26:44.609,8/28/14,1,1,4120.1157N, 8309.9687W,0.11,176.20,10
124.32,2.06,-1.43,-27.92,-1.97,236.54,73.78,13:26:44.796,8/28/14,1,1,4120.1157N, 8309.9687W,0.11,176.20,10
123.84,4.90,-1.93,-28.87,-6.89,227.33,73.78,13:26:44.796,8/28/14,1,1,4120.1157N, 8309.9687W,0.15,176.20,10
123.22,3.05,-1.46,-2.37,-4.92,239.62,73.78,13:26:45.0,8/28/14,1,1,4120.1157N, 8309.9687W,0.15,176.20,10
122.95,2.79,-1.43,-14.67,-4.92,232.45,73.78,13:26:45.0,8/28/14,1,1,4120.1157N, 8309.9687W,0.16,176.20,10
122.69,4.75,-1.84,-26.97,-8.86,231.42,73.78,13:26:45.203,8/28/14,1,1,4120.1157N, 8309.9687W,0.18,176.20,10
122.24,5.40,-1.95,-23.19,-11.82,231.42,73.78,13:26:45.406,8/28/14,1,1,4120.1157N, 8309.9687W,0.18,176.20,10
121.81,4.99,-1.88,-9.94,-5.91,238.59,78.42,13:26:45.406,8/28/14,1,1,4120.1157N, 8309.9687W,0.21,176.20,10
121.58,5.87,-2.19,-38.33,-16.74,227.33,74.94,13:26:45.609,8/28/14,1,1,4120.1157N, 8309.9687W,0.23,176.20,10
121.09,9.32,-2.61,-58.20,-12.80,216.06,73.78,13:26:45.796,8/28/14,1,1,4120.1157N, 8309.9687W,0.23,176.20,10
120.32,8.48,-2.48,-22.24,-8.86,239.62,73.78,13:26:45.796,8/28/14,1,1,4120.1157N, 8309.9687W,0.22,176.20,10
119.81,7.19,-2.25,-38.33,-10.83,228.35,73.78,13:26:46.0,8/28/14,1,1,4120.1157N, 8309.9687W,0.22,176.20,10
119.52,4.95,-1.79,-10.88,-9.85,238.59,73.78,13:26:46.0,8/28/14,1,1,4120.1157N, 8309.9687W,0.22,176.20,10
119.49,7.06,-2.42,-44.01,-6.89,221.18,71.46,13:26:46.203,8/28/14,1,1,4120.1157N, 8309.9687W,0.22,176.20,10
119.23,7.29,-2.39,-28.87,-8.86,234.50,73.78,13:26:46.406,8/28/14,1,1,4120.1157N, 8309.9687W,0.22,176.20,10
119.04,5.91,-2.12,-8.99,-7.88,242.69,78.42,13:26:46.406,8/28/14,1,1,4120.1157N, 8309.9687W,0.21,176.20,10
119.03,6.80,-2.36,-42.11,-7.88,219.14,75.52,13:26:46.609,8/28/14,1,1,4120.1157N, 8309.9687W,0.21,176.20,10
118.88,6.69,-2.22,-3.31,-8.86,247.81,73.78,13:26:46.609,8/28/14,1,1,4120.1157N, 8309.9687W,0.20,176.20,10
118.87,6.71,-2.28,-53.47,-14.77,216.06,73.78,13:26:46.796,8/28/14,1,1,4120.1157N, 8309.9687W,0.20,176.20,10
118.70,7.79,-2.46,-21.29,-8.86,238.59,73.78,13:26:47.0,8/28/14,1,1,4120.1157N, 8309.9687W,0.20,176.20,10
118.55,7.68,-2.33,-47.79,-10.83,219.14,73.78,13:26:47.0,8/28/14,1,1,4120.1157N, 8309.9687W,0.19,176.20,10
118.31,8.13,-2.34,-28.87,-8.86,237.57,73.78,13:26:47.203,8/28/14,1,1,4120.1157N, 8309.9687W,0.19,176.20,10
118.18,6.22,-2.09,-24.13,-8.86,237.57,74.94,13:26:47.406,8/28/14,1,1,4120.1157N, 8309.9687W,0.19,176.20,10
118.22,7.02,-2.21,-37.38,-8.86,227.33,76.10,13:26:47.406,8/28/14,1,1,4120.1157N, 8309.9687W,0.19,176.20,10
118.17,6.56,-2.09,-20.35,-7.88,238.59,73.78,13:26:47.609,8/28/14,1,1,4120.1157N, 8309.9687W,0.19,176.20,10
118.14,7.91,-2.25,-43.06,-16.74,214.02,73.78,13:26:47.609,8/28/14,1,1,4120.1157N, 8309.9687W,0.19,176.20,10
117.95,6.81,-2.21,-4.26,-6.89,246.78,73.78,13:26:47.796,8/28/14,1,1,4120.1157N, 8309.9687W,0.19,176.20,10
118.07,5.99,-2.16,-43.06,-9.85,223.23,73.78,13:26:48.0,8/28/14,1,1,4120.1157N, 8309.9687W,0.19,176.20,10
118.07,6.38,-2.10,-33.60,-3.94,240.64,73.78,13:26:48.0,8/28/14,1,1,4120.1157N, 8309.9687W,0.20,176.20,10
118.15,4.09,-1.51,-13.72,-7.88,239.62,74.94,13:26:48.203,8/28/14,1,1,4120.1157N, 8309.9687W,0.20,176.20,10
118.45,4.36,-1.69,-22.24,-6.89,231.42,78.42,13:26:48.203,8/28/14,1,1,4120.1157N, 8309.9687W,0.21,176.20,10
118.65,4.74,-1.75,-22.24,-9.85,229.38,74.36,13:26:48.406,8/28/14,1,1,4120.1157N, 8309.9687W,0.22,176.20,10
118.88,5.02,-1.82,-29.81,-10.83,229.38,73.78,13:26:48.609,8/28/14,1,1,4120.1157N, 8309.9687W,0.22,176.20,10
118.90,4.54,-1.71,-17.51,-7.88,234.50,74.94,13:26:48.796,8/28/14,1,1,4120.1157N, 8309.9687W,0.22,176.20,10
119.12,3.96,-1.56,-22.24,-8.86,228.35,73.78,13:26:48.796,8/28/14,1,1,4120.1157N, 8309.9687W,0.26,176.20,10
119.59,3.21,-1.37,-14.67,-4.92,236.54,75.52,13:26:49.203,8/28/14,1,1,4120.1157N, 8309.9687W,0.28,176.20,10
119.81,2.55,-1.24,-8.99,-3.94,236.54,73.78,13:26:49.406,8/28/14,1,1,4120.1157N, 8309.9687W,0.28,176.20,10
120.21,1.73,-1.05,-8.04,-6.89,232.45,73.78,13:26:49.406,8/28/14,1,1,4120.1157N, 8309.9687W,0.28,176.20,10
120.73,0.73,-0.43,5.21,-0.98,238.59,78.42,13:26:49.609,8/28/14,1,1,4120.1157N, 8309.9687W,0.28,176.20,10
120.97,0.92,-0.61,-5.21,-5.91,232.45,76.10,13:26:49.609,8/28/14,1,1,4120.1157N, 8309.9687W,0.28,176.20,10
121.16,0.85,-0.64,-6.15,-3.94,233.47,73.78,13:26:49.796,8/28/14,1,1,4120.1157N, 8309.9687W,0.29,176.20,10
121.26,0.77,-0.70,-3.31,-3.94,237.57,73.78,13:26:50.0,8/28/14,1,1,4120.1157N, 8309.9687W,0.29,176.20,10
121.23,0.91,-0.84,-1.42,-5.91,234.50,73.78,13:26:50.0,8/28/14,1,1,4120.1157N, 8309.9687W,0.29,176.20,10
121.07,1.33,-0.79,-8.04,-5.91,232.45,73.78,13:26:50.203,8/28/14,1,1,4120.1157N, 8309.9687W,0.30,176.20,10
121.03,1.44,-0.96,-5.21,-3.94,234.50,73.78,13:26:50.406,8/28/14,1,1,4120.1157N, 8309.9687W,0.30,176.20,10
121.00,1.10,-0.67,-6.15,4.92,241.66,76.68,13:26:50.406,8/28/14,1,1,4120.1157N, 8309.9687W,0.29,176.20,10
120.37,1.92,-1.22,-18.45,-5.91,226.30,76.68,13:26:50.609,8/28/14,1,1,4120.1157N, 8309.9687W,0.29,176.20,10
120.62,1.58,-1.11,-1.42,-0.98,236.54,74.36,13:26:50.609,8/28/14,1,1,4120.1157N, 8309.9687W,0.30,176.20,10
120.79,1.82,-1.15,-18.45,-6.89,230.40,73.78,13:26:50.796,8/28/14,1,1,4120.1157N, 8309.9687W,0.31,176.20,10
120.89,1.41,-0.95,-16.56,-3.94,229.38,73.78,13:26:51.0,8/28/14,1,1,4120.1157N, 8309.9687W,0.31,176.20,10
120.88,-0.40,-0.19,8.99,4.92,238.59,73.78,13:26:51.0,8/28/14,1,1,4120.1157N, 8309.9687W,0.32,176.20,10
120.38,-1.20,0.33,2.37,-1.97,222.21,73.78,13:26:51.203,8/28/14,1,1,4120.1157N, 8309.9687W,0.32,176.20,10
120.62,-2.72,0.35,10.88,10.83,236.54,73.78,13:26:51.203,8/28/14,1,1,4120.1157N, 8309.9687W,0.33,176.20,10
121.07,-4.52,0.17,26.03,-10.83,228.35,79.00,13:26:51.406,8/28/14,1,1,4120.1157N, 8309.9687W,0.33,176.20,10
121.61,-3.92,0.42,9.94,7.88,235.52,76.68,13:26:51.609,8/28/14,1,1,4120.1157N, 8309.9687W,0.33,176.20,10
122.01,-2.85,0.37,6.15,-0.98,231.42,73.78,13:26:51.609,8/28/14,1,1,4120.1157N, 8309.9687W,0.31,176.20,10
122.24,-3.54,0.54,19.40,-0.98,234.50,73.78,13:26:51.796,8/28/14,1,1,4120.1157N, 8309.9687W,0.31,176.20,10
122.51,-3.71,0.45,11.83,3.94,231.42,73.78,13:26:51.796,8/28/14,1,1,4120.1157N, 8309.9687W,0.24,176.20,10
122.75,-3.27,0.49,12.78,2.95,233.47,73.78,13:26:52.0,8/28/14,1,1,4120.1157N, 8309.9687W,0.23,176.20,10
122.92,-3.76,0.36,16.56,-0.98,232.45,73.78,13:26:52.203,8/28/14,1,1,4120.1157N, 8309.9687W,0.23,176.20,10
123.11,-3.38,0.41,11.83,3.94,235.52,73.78,13:26:52.203,8/28/14,1,1,4120.1157N, 8309.9687W,0.23,176.20,10
123.23,-3.02,0.41,0.47,-34.46,211.97,74.94,13:26:52.406,8/28/14,1,1,4120.1157N, 8309.9687W,0.23,176.20,10
123.31,-3.44,0.76,12.78,-3.94,230.40,74.36,13:26:52.609,8/28/14,1,1,4120.1157N, 8309.9687W,0.23,176.20,10
123.38,-3.67,0.43,19.40,5.91,233.47,73.78,13:26:52.609,8/28/14,1,1,4120.1157N, 8309.9687W,0.21,176.20,10
123.50,-3.36,0.20,10.88,3.94,234.50,73.78,13:26:52.796,8/28/14,1,1,4120.1157N, 8309.9687W,0.21,176.20,10
123.58,-3.48,0.29,13.72,-2.95,229.38,73.78,13:26:52.796,8/28/14,1,1,4120.1157N, 8309.9687W,0.19,176.20,10
123.67,-3.39,0.31,12.78,6.89,234.50,73.78,13:26:53.0,8/28/14,1,1,4120.1157N, 8309.9687W,0.18,176.20,10
123.74,-3.68,0.15,17.51,0.98,234.50,73.78,13:26:53.203,8/28/14,1,1,4120.1157N, 8309.9687W,0.18,176.20,10
123.80,-3.66,0.33,14.67,0.98,233.47,79.00,13:26:53.203,8/28/14,1,1,4120.1157N, 8309.9687W,0.17,176.20,10
123.85,-3.66,0.27,14.67,-5.91,234.50,75.52,13:26:53.406,8/28/14,1,1,4120.1157N, 8309.9687W,0.17,176.20,10
123.90,-2.99,0.91,9.94,12.80,236.54,73.78,13:26:53.406,8/28/14,1,1,4120.1157N, 8309.9687W,0.13,176.20,10
123.69,-3.77,0.20,22.24,-1.97,230.40,73.78,13:26:53.609,8/28/14,1,1,4120.1157N, 8309.9687W,0.09,176.20,10
124.31,-3.27,0.62,8.99,1.97,230.40,73.78,13:26:53.796,8/28/14,1,1,4120.1157N, 8309.9687W,0.09,176.20,10
123.97,-3.43,0.88,25.08,-2.95,229.38,73.78,13:26:53.796,8/28/14,1,1,4120.1157N, 8309.9687W,0.07,176.20,10
123.85,-2.93,0.81,8.04,11.82,241.66,73.78,13:26:54.0,8/28/14,1,1,4120.1157N, 8309.9687W,0.06,176.20,10
123.72,-2.07,0.19,0.47,-0.98,230.40,73.78,13:26:54.203,8/28/14,1,1,4120.1157N, 8309.9687W,0.06,176.20,10
123.73,-2.34,0.31,31.70,1.97,236.54,79.00,13:26:54.203,8/28/14,1,1,4120.1157N, 8309.9687W,0.06,176.20,10
123.64,-2.67,0.48,1.42,-2.95,231.42,74.94,13:26:54.406,8/28/14,1,1,4120.1157N, 8309.9687W,0.06,176.20,10
123.52,-2.33,0.50,26.97,6.89,239.62,73.78,13:26:54.406,8/28/14,1,1,4120.1157N, 8309.9687W,0.06,176.20,10
123.66,-1.68,0.20,-2.37,7.88,228.35,73.78,13:26:54.609,8/28/14,1,1,4120.1157N, 8309.9687W,0.05,176.20,10
123.67,-2.52,0.32,2.37,0.98,233.47,73.78,13:26:54.796,8/28/14,1,1,4120.1157N, 8309.9687W,0.05,176.20,10
123.63,-2.96,0.26,9.94,-2.95,228.35,73.78,13:26:54.796,8/28/14,1,1,4120.1157N, 8309.9687W,0.04,176.20,10
123.61,-3.36,0.56,26.03,0.98,235.52,73.78,13:26:55.0,8/28/14,1,1,4120.1157N, 8309.9687W,0.04,176.20,10
123.63,-3.15,0.43,13.72,13.78,229.38,73.78,13:26:55.0,8/28/14,1,1,4120.1157N, 8309.9687W,0.02,176.20,10
123.80,-2.73,0.21,11.83,4.92,235.52,79.00,13:26:55.203,8/28/14,1,1,4120.1157N, 8309.9687W,0.02,176.20,10
123.74,-2.77,0.36,6.15,0.98,229.38,74.94,13:26:55.406,8/28/14,1,1,4120.1157N, 8309.9687W,0.02,176.20,10
123.63,-2.57,0.31,7.10,-1.97,232.45,73.78,13:26:55.406,8/28/14,1,1,4120.1157N, 8309.9687W,0.01,176.20,10
123.49,-2.90,0.30,18.45,6.89,233.47,73.78,13:26:55.609,8/28/14,1,1,4120.1157N, 8309.9687W,0.01,176.20,10
123.66,-3.91,0.12,21.29,1.97,235.52,73.78,13:26:55.609,8/28/14,1,1,4120.1157N, 8309.9687W,0.02,176.20,10
123.79,-3.23,0.49,3.31,7.88,232.45,73.78,13:26:55.796,8/28/14,1,1,4120.1157N, 8309.9687W,0.04,176.20,10
123.78,-3.66,0.42,26.03,-0.98,236.54,73.78,13:26:56.0,8/28/14,1,1,4120.1157N, 8309.9687W,0.04,176.20,10
124.04,-2.33,0.34,-4.26,-2.95,230.40,79.00,13:26:56.0,8/28/14,1,1,4120.1157N, 8309.9687W,0.06,176.20,10
124.54,-2.31,0.51,14.67,8.86,235.52,79.00,13:26:56.203,8/28/14,1,1,4120.1157N, 8309.9687W,0.06,176.20,10
123.97,-3.08,0.66,15.62,-0.98,231.42,73.78,13:26:56.406,8/28/14,1,1,4120.1157N, 8309.9687W,0.06,176.20,10
123.97,-3.29,0.57,11.83,0.98,233.47,73.78,13:26:56.406,8/28/14,1,1,4120.1157N, 8309.9687W,0.07,176.20,10
123.94,-3.51,0.43,12.78,1.97,230.40,73.78,13:26:56.609,8/28/14,1,1,4120.1157N, 8309.9687W,0.07,176.20,10
123.84,-3.15,0.46,10.88,0.98,232.45,73.78,13:26:56.609,8/28/14,1,1,4120.1157N, 8309.9687W,0.06,176.20,10
123.83,-3.35,0.43,14.67,0.00,230.40,73.78,13:26:56.796,8/28/14,1,1,4120.1157N, 8309.9687W,0.06,176.20,10
123.85,-3.27,0.43,12.78,2.95,232.45,73.78,13:26:57.0,8/28/14,1,1,4120.1157N, 8309.9687W,0.06,176.20,10
123.86,-3.33,0.39,15.62,1.97,231.42,79.00,13:26:57.0,8/28/14,1,1,4120.1157N, 8309.9687W,0.06,176.20,10
123.89,-3.32,0.35,14.67,10.83,230.40,74.94,13:26:57.203,8/28/14,1,1,4120.1157N, 8309.9687W,0.06,176.20,10
123.91,-3.11,0.49,8.99,4.92,237.57,73.78,13:26:57.203,8/28/14,1,1,4120.1157N, 8309.9687W,0.07,176.20,10
123.73,-1.47,0.28,4.26,-5.91,230.40,73.78,13:26:57.406,8/28/14,1,1,4120.1157N, 8309.9687W,0.07,176.20,10
123.59,-2.42,0.65,12.78,3.94,235.52,73.78,13:26:57.609,8/28/14,1,1,4120.1157N, 8309.9687W,0.07,176.20,10
123.54,-2.15,0.36,11.83,6.89,236.54,73.78,13:26:57.609,8/28/14,1,1,4120.1157N, 8309.9687W,0.07,176.20,10
123.77,-2.03,0.41,7.10,7.88,236.54,73.78,13:26:57.796,8/28/14,1,1,4120.1157N, 8309.9687W,0.07,176.20,10
123.49,-2.44,0.36,11.83,2.95,230.40,73.78,13:26:57.796,8/28/14,1,1,4120.1157N, 8309.9687W,0.08,176.20,10
123.15,-2.60,0.48,11.83,-2.95,230.40,79.00,13:26:58.0,8/28/14,1,1,4120.1157N, 8309.9687W,0.07,176.20,10
123.31,-3.00,0.24,10.88,5.91,231.42,74.36,13:26:58.203,8/28/14,1,1,4120.1157N, 8309.9687W,0.07,176.20,10
123.34,-3.41,0.37,21.29,0.00,231.42,73.78,13:26:58.203,8/28/14,1,1,4120.1157N, 8309.9687W,0.07,176.20,10
123.44,-2.83,0.34,12.78,7.88,235.52,73.78,13:26:58.406,8/28/14,1,1,4120.1157N, 8309.9687W,0.06,176.20,10
123.23,-2.05,0.12,14.67,-0.98,234.50,73.78,13:26:58.609,8/28/14,1,1,4120.1157N, 8309.9687W,0.06,176.20,10
123.29,-2.33,0.15,5.21,-5.91,228.35,73.78,13:26:58.609,8/28/14,1,1,4120.1157N, 8309.9687W,0.07,176.20,10
123.15,-2.55,0.36,22.24,-5.91,231.42,73.78,13:26:58.796,8/28/14,1,1,4120.1157N, 8309.9687W,0.07,176.20,10
123.27,-2.69,0.46,10.88,2.95,231.42,77.26,13:26:58.796,8/28/14,1,1,4120.1157N, 8309.9687W,0.09,176.20,10
123.48,-2.52,0.34,-1.42,0.00,229.38,74.36,13:26:59.0,8/28/14,1,1,4120.1157N, 8309.9687W,0.09,176.20,10
123.98,-2.53,0.33,8.04,9.85,234.50,73.78,13:26:59.203,8/28/14,1,1,4120.1157N, 8309.9687W,0.09,176.20,10
123.77,-3.00,0.63,8.04,10.83,233.47,73.78,13:26:59.203,8/28/14,1,1,4120.1157N, 8309.9687W,0.09,176.20,10
123.79,-2.09,0.40,-3.31,5.91,231.42,73.78,13:26:59.406,8/28/14,1,1,4120.1157N, 8309.9687W,0.09,176.20,10
123.65,-1.69,0.22,6.15,1.97,231.42,73.78,13:26:59.406,8/28/14,1,1,4120.1157N, 8309.9687W,0.09,176.20,10
123.38,-2.94,0.82,23.19,14.77,237.57,73.78,13:26:59.609,8/28/14,1,1,4120.1157N, 8309.9687W,0.09,176.20,10
123.35,-2.82,0.86,8.04,-0.98,232.45,74.36,13:26:59.796,8/28/14,1,1,4120.1157N, 8309.9687W,0.09,176.20,10
123.35,-3.01,0.69,21.29,3.94,242.69,77.26,13:26:59.796,8/28/14,1,1,4120.1157N, 8309.9687W,0.07,176.20,10
123.49,-3.28,0.63,11.83,2.95,231.42,74.94,13:27:0.0,8/28/14,1,1,4120.1157N, 8309.9687W,0.07,176.20,10
123.51,-3.15,0.59,11.83,0.00,227.33,73.78,13:27:0.203,8/28/14,1,1,4120.1157N, 8309.9687W,0.07,176.20,10
123.67,-2.97,0.26,19.40,-0.98,226.30,73.78,13:27:0.203,8/28/14,1,1,4120.1157N, 8309.9687W,0.08,176.20,10
123.91,-2.51,0.51,-0.47,1.97,229.38,73.78,13:27:0.406,8/28/14,1,1,4120.1157N, 8309.9687W,0.08,176.20,10
123.62,-2.48,0.41,20.35,-4.92,235.52,73.78,13:27:0.406,8/28/14,1,1,4120.1157N, 8309.9687W,0.09,176.20,10
125.01,-1.97,0.29,8.99,2.95,240.64,73.78,13:27:0.609,8/28/14,1,1,4120.1157N, 8309.9687W,0.08,176.20,10
125.31,-0.63,0.15,-4.26,-1.97,230.40,73.78,13:27:0.796,8/28/14,1,1,4120.1157N, 8309.9687W,0.08,176.20,10
125.00,-2.15,0.52,19.40,4.92,234.50,78.42,13:27:0.796,8/28/14,1,1,4120.1157N, 8309.9687W,0.08,176.20,10
125.73,-2.06,0.39,-4.26,4.92,235.52,74.36,13:27:1.0,8/28/14,1,1,4120.1157N, 8309.9687W,0.08,176.30,10
125.12,-2.25,0.44,-0.47,2.95,233.47,74.36,13:27:1.0,8/28/14,1,1,4120.1157N, 8309.9687W,0.08,176.30,10
124.94,-4.29,0.52,31.70,0.00,230.40,73.78,13:27:1.203,8/28/14,1,1,4120.1157N, 8309.9687W,0.09,176.30,10
124.88,-2.95,0.60,0.47,7.88,231.42,74.36,13:27:1.406,8/28/14,1,1,4120.1157N, 8309.9687W,0.09,176.30,10
124.80,-2.31,0.20,0.47,1.97,227.33,74.36,13:27:1.406,8/28/14,1,1,4120.1157N, 8309.9687W,0.10,176.30,10
124.29,-4.60,0.69,35.49,-12.80,224.26,74.36,13:27:1.609,8/28/14,1,1,4120.1157N, 8309.9687W,0.10,176.30,10
124.27,-3.49,1.07,0.47,14.77,234.50,79.00,13:27:1.609,8/28/14,1,1,4120.1157N, 8309.9687W,0.10,176.30,10
123.76,-2.03,0.42,5.21,-3.94,229.38,75.52,13:27:1.796,8/28/14,1,1,4120.1157N, 8309.9687W,0.10,176.30,10
123.45,-2.85,0.65,15.62,0.98,232.45,73.78,13:27:2.0,8/28/14,1,1,4120.1157N, 8309.9687W,0.10,176.30,10
123.11,-2.14,0.38,2.37,2.95,232.45,73.78,13:27:2.0,8/28/14,1,1,4120.1157N, 8309.9687W,0.10,176.30,10
123.21,-1.44,0.14,4.26,1.97,231.42,73.78,13:27:2.203,8/28/14,1,1,4120.1157N, 8309.9687W,0.10,176.30,10
123.15,-2.54,0.49,14.67,-0.98,235.52,74.36,13:27:2.406,8/28/14,1,1,4120.1157N, 8309.9687W,0.10,176.30,10
123.18,-2.96,0.48,23.19,3.94,239.62,74.36,13:27:2.406,8/28/14,1,1,4120.1157N, 8309.9687W,0.09,176.30,10
123.29,-1.03,0.05,-10.88,-4.92,225.28,74.36,13:27:2.609,8/28/14,1,1,4120.1157N, 8309.9687W,0.09,176.30,10
123.19,-0.73,-0.12,4.26,-1.97,234.50,76.68,13:27:2.609,8/28/14,1,1,4120.1157N, 8309.9687W,0.07,176.30,10
123.14,-1.65,0.22,8.99,2.95,234.50,74.36,13:27:2.796,8/28/14,1,1,4120.1157N, 8309.9687W,0.05,176.30,10
123.11,-1.07,0.16,5.21,-0.98,234.50,74.36,13:27:3.0,8/28/14,1,1,4120.1157N, 8309.9687W,0.05,176.30,10
123.08,-0.07,-0.26,-4.26,-3.94,231.42,74.36,13:27:3.0,8/28/14,1,1,4120.1157N, 8309.9687W,0.05,176.30,10
123.03,-0.76,0.02,6.15,-1.97,235.52,74.36,13:27:3.203,8/28/14,1,1,4120.1157N, 8309.9687W,0.05,176.30,10
123.03,-0.16,-0.21,-4.26,-2.95,230.40,73.78,13:27:3.203,8/28/14,1,1,4120.1157N, 8309.9687W,0.05,176.30,10
122.96,-0.14,-0.25,-1.42,-1.97,233.47,74.36,13:27:3.406,8/28/14,1,1,4120.1157N, 8309.9687W,0.06,176.30,10
122.90,-0.99,0.17,7.10,0.00,234.50,79.00,13:27:3.609,8/28/14,1,1,4120.1157N, 8309.9687W,0.06,176.30,10
122.91,-0.88,0.03,5.21,0.00,233.47,75.52,13:27:3.609,8/28/14,1,1,4120.1157N, 8309.9687W,0.07,176.30,10
122.89,-0.86,0.05,-0.47,0.00,232.45,74.36,13:27:3.796,8/28/14,1,1,4120.1157N, 8309.9687W,0.07,176.30,10
122.82,-0.98,0.10,3.31,-4.92,230.40,74.36,13:27:3.796,8/28/14,1,1,4120.1157N, 8309.9687W,0.09,176.30,10
122.80,-0.95,-0.01,8.04,0.00,234.50,74.36,13:27:4.0,8/28/14,1,1,4120.1157N, 8309.9687W,0.09,176.30,10
122.12,-1.91,0.66,13.72,3.94,238.59,74.36,13:27:4.203,8/28/14,1,1,4120.1157N, 8309.9687W,0.09,176.30,10
122.07,-1.20,-0.05,-10.88,-6.89,229.38,70.88,13:27:4.203,8/28/14,1,1,4120.1157N, 8309.9687W,0.10,176.30,10
122.01,-3.06,0.77,22.24,0.98,242.69,77.84,13:27:4.406,8/28/14,1,1,4120.1157N, 8309.9687W,0.11,176.30,10
122.38,-4.21,0.39,8.04,-1.97,228.35,76.10,13:27:4.609,8/28/14,1,1,4120.1157N, 8309.9687W,0.11,176.30,10
122.68,-3.40,0.93,19.40,-2.95,234.50,74.36,13:27:4.609,8/28/14,1,1,4120.1157N, 8309.9687W,0.02,176.30,10
123.02,-3.94,0.45,3.31,13.78,234.50,74.36,13:27:4.796,8/28/14,1,1,4120.1157N, 8309.9687W,0.02,176.30,10
122.83,-3.78,0.58,17.51,-3.94,232.45,70.30,13:27:4.796,8/28/14,1,1,4120.1157N, 8309.9687W,0.03,176.30,10
122.78,-4.27,0.11,8.04,12.80,235.52,74.36,13:27:5.0,8/28/14,1,1,4120.1157N, 8309.9687W,0.01,176.30,10
122.94,-3.62,0.26,15.62,-6.89,230.40,74.36,13:27:5.203,8/28/14,1,1,4120.1157N, 8309.9687W,0.01,176.30,10
123.16,-4.74,0.17,23.19,1.97,232.45,73.78,13:27:5.203,8/28/14,1,1,4120.1157N, 8309.9687W,0.01,176.30,10
123.30,-3.74,0.17,9.94,-0.98,224.26,77.84,13:27:5.406,8/28/14,1,1,4120.1157N, 8309.9687W,0.01,176.30,10
123.35,-4.28,0.48,22.24,-1.97,233.47,77.84,13:27:5.406,8/28/14,1,1,4120.1157N, 8309.9687W,0.02,176.30,10
123.30,-4.13,0.21,9.94,8.86,234.50,74.36,13:27:5.609,8/28/14,1,1,4120.1157N, 8309.9687W,0.01,176.30,10
123.39,-3.86,0.18,22.24,-4.92,231.42,74.36,13:27:5.796,8/28/14,1,1,4120.1157N, 8309.9687W,0.01,176.30,10
123.75,-5.24,0.18,9.94,-3.94,222.21,74.36,13:27:5.796,8/28/14,1,1,4120.1157N, 8309.9687W,0.01,176.30,10
123.72,-2.60,0.97,11.83,-8.86,226.30,74.36,13:27:6.0,8/28/14,1,1,4120.1157N, 8309.9687W,0.03,176.30,10
123.73,-2.53,0.58,5.21,11.82,230.40,74.36,13:27:6.203,8/28/14,1,1,4120.1157N, 8309.9687W,0.03,176.30,10
123.67,-4.57,0.43,30.76,-9.85,229.38,74.36,13:27:6.203,8/28/14,1,1,4120.1157N, 8309.9687W,0.02,176.30,10
123.79,-3.99,0.49,8.04,2.95,236.54,79.00,13:27:6.406,8/28/14,1,1,4120.1157N, 8309.9687W,0.02,176.30,10
123.84,-3.23,0.40,13.72,0.00,232.45,74.94,13:27:6.406,8/28/14,1,1,4120.1157N, 8309.9687W,0.03,176.30,10
123.66,-2.59,0.27,1.42,2.95,232.45,74.36,13:27:6.609,8/28/14,1,1,4120.1157N, 8309.9687W,0.03,176.30,10
123.73,-1.12,0.03,9.94,-2.95,236.54,74.36,13:27:6.796,8/28/14,1,1,4120.1157N, 8309.9687W,0.03,176.30,10
126.26,-0.73,-0.77,-10.88,-4.92,227.33,74.36,13:27:6.796,8/28/14,1,1,4120.1157N, 8309.9687W,0.02,176.30,10
127.69,-1.57,0.57,13.72,13.78,239.62,74.36,13:27:7.0,8/28/14,1,1,4120.1157N, 8309.9687W,0.02,176.30,10
126.21,-4.16,0.39,26.97,-5.91,227.33,74.36,13:27:7.0,8/28/14,1,1,4120.1157N, 8309.9687W,0.02,176.30,10
125.71,-3.21,0.26,8.99,8.86,232.45,74.94,13:27:7.203,8/28/14,1,1,4120.1157N, 8309.9687W,0.04,176.30,10
125.61,-2.39,0.08,1.42,-0.98,232.45,79.00,13:27:7.406,8/28/14,1,1,4120.1157N, 8309.9687W,0.04,176.30,10
125.44,-2.57,0.24,11.83,0.00,236.54,74.36,13:27:7.406,8/28/14,1,1,4120.1157N, 8309.9687W,0.01,176.30,10
125.03,-3.51,0.37,19.40,0.98,229.38,74.36,13:27:7.609,8/28/14,1,1,4120.1157N, 8309.9687W,0.01,176.30,10
124.77,-3.80,0.31,12.78,1.97,235.52,74.36,13:27:7.609,8/28/14,1,1,4120.1157N, 8309.9687W,0.01,176.30,10
124.89,-3.03,0.25,8.99,0.00,231.42,73.78,13:27:7.796,8/28/14,1,1,4120.1157N, 8309.9687W,0.02,176.30,10
124.43,-2.70,0.24,11.83,3.94,235.52,74.36,13:27:8.0,8/28/14,1,1,4120.1157N, 8309.9687W,0.01,176.30,10
123.65,-2.39,0.20,14.67,0.98,235.52,77.84,13:27:8.203,8/28/14,1,1,4120.1157N, 8309.9687W,0.01,176.30,10
123.30,-1.74,0.24,-4.26,-1.97,229.38,79.00,13:27:8.406,8/28/14,1,1,4120.1157N, 8309.9687W,0.01,176.30,10
123.15,-2.14,0.22,8.04,1.97,230.40,76.10,13:27:8.609,8/28/14,1,1,4120.1157N, 8309.9687W,0.01,176.30,10
122.90,-1.79,0.23,15.62,5.91,240.64,74.36,13:27:8.609,8/28/14,1,1,4120.1157N, 8309.9687W,0.01,176.30,10
122.80,-1.94,0.14,2.37,6.89,232.45,79.00,13:27:8.796,8/28/14,1,1,4120.1157N, 8309.9687W,0.01,176.30,10
122.86,-2.38,0.43,1.42,-0.98,230.40,74.36,13:27:8.796,8/28/14,1,1,4120.1157N, 8309.9687W,0.01,176.30,10
123.04,-2.82,0.48,1.42,-11.82,225.28,74.36,13:27:9.0,8/28/14,1,1,4120.1157N, 8309.9687W,0.01,176.30,10
123.07,-2.95,0.41,8.99,8.86,224.26,74.36,13:27:9.203,8/28/14,1,1,4120.1157N, 8309.9687W,0.01,176.30,10
122.88,-3.55,0.65,10.88,-4.92,233.47,74.36,13:27:9.203,8/28/14,1,1,4120.1157N, 8309.9687W,0.00,176.30,10
123.01,-3.89,0.65,13.72,1.97,233.47,74.36,13:27:9.406,8/28/14,1,1,4120.1157N, 8309.9687W,0.00,176.30,10
123.03,-3.74,0.51,23.19,3.94,235.52,74.36,13:27:9.406,8/28/14,1,1,4120.1157N, 8309.9687W,0.01,176.30,10
123.42,-3.77,0.34,13.72,1.97,230.40,74.36,13:27:9.609,8/28/14,1,1,4120.1157N, 8309.9687W,0.00,176.30,10
123.54,-2.63,0.69,5.21,-0.98,228.35,79.00,13:27:9.796,8/28/14,1,1,4120.1157N, 8309.9687W,0.00,176.30,10
123.32,-2.70,0.61,0.47,-9.85,222.21,74.36,13:27:9.796,8/28/14,1,1,4120.1157N, 8309.9687W,0.00,176.30,10
123.37,-3.53,0.29,23.19,-1.97,236.54,74.36,13:27:10.0,8/28/14,1,1,4120.1157N, 8309.9687W,0.00,176.30,10
124.01,-3.31,0.11,15.62,2.95,234.50,74.36,13:27:10.0,8/28/14,1,1,4120.1157N, 8309.9687W,0.01,176.30,10
123.59,-3.43,0.85,19.40,-0.98,237.57,73.78,13:27:10.203,8/28/14,1,1,4120.1157N, 8309.9687W,0.01,176.30,10
124.21,-3.70,0.22,12.78,9.85,236.54,74.36,13:27:10.406,8/28/14,1,1,4120.1157N, 8309.9687W,0.01,176.30,10
123.75,-3.04,0.65,12.78,-17.72,229.38,74.36,13:27:10.406,8/28/14,1,1,4120.1157N, 8309.9687W,0.01,176.30,10
123.77,-4.10,0.15,16.56,-0.98,230.40,79.00,13:27:10.609,8/28/14,1,1,4120.1157N, 8309.9687W,0.01,176.30,10
123.82,-3.50,0.37,11.83,10.83,232.45,76.68,13:27:10.609,8/28/14,1,1,4120.1157N, 8309.9687W,0.00,176.30,10
123.64,-4.23,0.24,1.42,2.95,225.28,74.36,13:27:10.796,8/28/14,1,1,4120.1157N, 8309.9687W,0.00,176.30,10
123.92,-2.74,0.21,15.62,-0.98,227.33,74.36,13:27:11.0,8/28/14,1,1,4120.1157N, 8309.9687W,0.00,176.30,10
124.36,-2.54,0.12,2.37,9.85,237.57,74.36,13:27:11.0,8/28/14,1,1,4120.1157N, 8309.9687W,0.00,176.30,10
124.57,-1.89,0.49,-5.21,-3.94,226.30,73.78,13:27:11.203,8/28/14,1,1,4120.1157N, 8309.9687W,0.00,176.30,10
123.97,-1.65,0.39,4.26,1.97,237.57,74.36,13:27:11.406,8/28/14,1,1,4120.1157N, 8309.9687W,0.00,176.30,10
124.11,-2.53,0.44,4.26,-6.89,227.33,74.36,13:27:11.406,8/28/14,1,1,4120.1157N, 8309.9687W,0.02,176.30,10
123.98,-3.33,0.91,12.78,0.00,234.50,74.94,13:27:11.609,8/28/14,1,1,4120.1157N, 8309.9687W,0.02,176.30,10
123.74,-3.88,0.21,12.78,-2.95,229.38,79.58,13:27:11.609,8/28/14,1,1,4120.1157N, 8309.9687W,0.01,176.30,10
124.38,-3.86,0.78,5.21,-6.89,227.33,74.36,13:27:11.796,8/28/14,1,1,4120.1157N, 8309.9687W,0.01,176.30,10
124.54,-3.59,0.50,11.83,-3.94,227.33,74.36,13:27:12.0,8/28/14,1,1,4120.1157N, 8309.9687W,0.01,176.30,10
124.44,-3.48,0.41,4.26,-1.97,231.42,74.36,13:27:12.0,8/28/14,1,1,4120.1157N, 8309.9687W,0.01,176.30,10
124.43,-3.88,0.37,6.15,-1.97,230.40,74.36,13:27:12.203,8/28/14,1,1,4120.1157N, 8309.9687W,0.01,176.30,10
124.34,-3.99,0.28,13.72,3.94,233.47,74.36,13:27:12.203,8/28/14,1,1,4120.1157N, 8309.9687W,0.01,176.30,10
124.30,-4.17,0.26,13.72,-0.98,230.40,74.36,13:27:12.406,8/28/14,1,1,4120.1157N, 8309.9687W,0.01,176.30,10
124.59,-4.08,0.24,19.40,2.95,233.47,79.00,13:27:12.609,8/28/14,1,1,4120.1157N, 8309.9687W,0.01,176.30,10
124.57,-3.52,0.46,14.67,1.97,231.42,75.52,13:27:12.609,8/28/14,1,1,4120.1157N, 8309.9687W,0.00,176.30,10
124.49,-3.32,0.46,15.62,6.89,234.50,74.36,13:27:12.796,8/28/14,1,1,4120.1157N, 8309.9687W,0.00,176.30,10
124.31,-3.42,0.49,11.83,5.91,235.52,74.36,13:27:12.796,8/28/14,1,1,4120.1157N, 8309.9687W,0.00,176.30,10
123.94,-3.54,0.14,22.24,-5.91,230.40,74.36,13:27:13.0,8/28/14,1,1,4120.1157N, 8309.9687W,0.00,176.30,10
123.36,-3.06,0.64,23.19,-5.91,230.40,74.36,13:27:13.203,8/28/14,1,1,4120.1157N, 8309.9687W,0.00,176.30,10
122.34,-2.90,0.36,8.04,6.89,237.57,74.36,13:27:13.203,8/28/14,1,1,4120.1157N, 8309.9687W,0.01,176.30,10
122.02,-3.39,0.36,24.13,1.97,234.50,74.36,13:27:13.406,8/28/14,1,1,4120.1157N, 8309.9687W,0.01,176.30,10
122.58,-4.00,0.24,8.99,3.94,233.47,79.00,13:27:13.609,8/28/14,1,1,4120.1157N, 8309.9687W,0.01,176.30,10
122.67,-3.59,0.63,16.56,-2.95,237.57,75.52,13:27:13.609,8/28/14,1,1,4120.1157N, 8309.9687W,0.01,176.30,10
122.72,-4.20,0.50,32.65,-4.92,231.42,74.36,13:27:13.796,8/28/14,1,1,4120.1157N, 8309.9687W,0.01,176.30,10
122.73,-3.59,0.53,17.51,5.91,227.33,74.36,13:27:13.796,8/28/14,1,1,4120.1157N, 8309.9687W,0.01,176.30,10
122.80,-3.51,0.56,1.42,-0.98,227.33,74.36,13:27:14.0,8/28/14,1,1,4120.1157N, 8309.9687W,0.00,176.30,10
122.64,-3.62,0.42,31.70,-2.95,233.47,74.36,13:27:14.203,8/28/14,1,1,4120.1157N, 8309.9687W,0.00,176.30,10
122.90,-4.14,-0.02,6.15,9.85,230.40,74.36,13:27:14.203,8/28/14,1,1,4120.1157N, 8309.9687W,0.00,176.30,10
122.96,-4.20,0.35,21.29,0.98,223.23,74.94,13:27:14.406,8/28/14,1,1,4120.1157N, 8309.9687W,0.00,176.30,10
123.07,-3.67,0.65,7.10,1.97,234.50,79.00,13:27:14.406,8/28/14,1,1,4120.1157N, 8309.9687W,0.01,176.30,10
123.07,-2.62,0.61,3.31,0.98,233.47,74.36,13:27:14.609,8/28/14,1,1,4120.1157N, 8309.9687W,0.00,176.30,10
122.84,-3.38,0.62,22.24,0.00,233.47,74.36,13:27:14.796,8/28/14,1,1,4120.1157N, 8309.9687W,0.00,176.30,10
122.92,-4.15,0.28,19.40,12.80,230.40,74.36,13:27:14.796,8/28/14,1,1,4120.1157N, 8309.9687W,0.00,176.30,10
123.05,-3.29,0.58,5.21,1.97,229.38,74.36,13:27:15.0,8/28/14,1,1,4120.1157N, 8309.9687W,0.00,176.30,10
122.87,-3.43,0.90,4.26,-5.91,231.42,74.36,13:27:15.203,8/28/14,1,1,4120.1157N, 8309.9687W,0.00,176.30,10
123.09,-2.52,0.58,8.04,7.88,236.54,74.36,13:27:15.203,8/28/14,1,1,4120.1157N, 8309.9687W,0.01,176.30,10
123.07,-2.42,0.48,4.26,1.97,231.42,79.00,13:27:15.406,8/28/14,1,1,4120.1157N, 8309.9687W,0.01,176.30,10
123.05,-3.87,0.63,16.56,-7.88,234.50,75.52,13:27:15.406,8/28/14,1,1,4120.1157N, 8309.9687W,0.01,176.30,10
124.12,-3.10,0.74,16.56,7.88,228.35,74.36,13:27:15.609,8/28/14,1,1,4120.1157N, 8309.9687W,0.01,176.30,10
127.30,-2.85,0.75,-20.35,39.38,239.62,74.36,13:27:15.796,8/28/14,1,1,4120.1157N, 8309.9687W,0.01,176.30,10
125.16,-0.94,1.59,-2.37,-5.91,238.59,74.36,13:27:15.796,8/28/14,1,1,4120.1157N, 8309.9687W,0.01,176.30,10
123.09,-3.35,0.42,45.90,12.80,242.69,74.36,13:27:16.0,8/28/14,1,1,4120.1157N, 8309.9687W,0.01,176.30,10
122.99,-4.80,0.49,13.72,-6.89,228.35,74.36,13:27:16.0,8/28/14,1,1,4120.1157N, 8309.9687W,0.01,176.30,10
123.39,-4.21,0.76,9.94,5.91,238.59,74.36,13:27:16.203,8/28/14,1,1,4120.1157N, 8309.9687W,0.02,176.30,10
123.85,-3.05,0.36,22.24,-6.89,222.21,79.00,13:27:16.406,8/28/14,1,1,4120.1157N, 8309.9687W,0.02,176.30,10
125.50,-3.79,0.80,-8.99,7.88,239.62,75.52,13:27:16.406,8/28/14,1,1,4120.1157N, 8309.9687W,0.01,176.30,10
125.19,-3.47,1.10,9.94,-0.98,236.54,74.94,13:27:16.609,8/28/14,1,1,4120.1157N, 8309.9687W,0.01,176.30,10
124.72,-4.28,0.41,23.19,-4.92,233.47,74.36,13:27:16.609,8/28/14,1,1,4120.1157N, 8309.9687W,0.01,176.30,10
124.80,-4.65,0.42,8.99,7.88,235.52,73.78,13:27:16.796,8/28/14,1,1,4120.1157N, 8309.9687W,0.00,176.30,10
123.48,-4.20,0.64,8.04,-6.89,234.50,74.36,13:27:17.0,8/28/14,1,1,4120.1157N, 8309.9687W,0.00,176.30,10
123.19,-2.88,0.05,21.29,23.63,249.86,74.36,13:27:17.0,8/28/14,1,1,4120.1157N, 8309.9687W,0.01,176.30,10
123.26,-4.41,0.52,28.87,-2.95,231.42,74.36,13:27:17.203,8/28/14,1,1,4120.1157N, 8309.9687W,0.01,176.30,10
123.50,-4.09,0.62,7.10,0.98,232.45,79.58,13:27:17.406,8/28/14,1,1,4120.1157N, 8309.9687W,0.01,176.30,10
123.61,-3.90,0.57,20.35,-1.97,232.45,76.10,13:27:17.406,8/28/14,1,1,4120.1157N, 8309.9687W,0.01,176.30,10
123.71,-4.25,0.39,15.62,1.97,234.50,74.36,13:27:17.609,8/28/14,1,1,4120.1157N, 8309.9687W,0.01,176.30,10
123.76,-3.42,0.43,8.99,5.91,233.47,74.36,13:27:17.609,8/28/14,1,1,4120.1157N, 8309.9687W,0.01,176.30,10
123.09,-3.44,0.40,13.72,0.00,236.54,74.36,13:27:17.796,8/28/14,1,1,4120.1157N, 8309.9687W,0.01,176.30,10
123.47,-3.98,0.45,20.35,3.94,230.40,74.36,13:27:18.0,8/28/14,1,1,4120.1157N, 8309.9687W,0.01,176.30,10
123.90,-4.46,0.64,14.67,-4.92,229.38,74.36,13:27:18.0,8/28/14,1,1,4120.1157N, 8309.9687W,0.01,176.30,10
123.28,-3.15,0.68,6.15,-3.94,231.42,74.94,13:27:18.203,8/28/14,1,1,4120.1157N, 8309.9687W,0.01,176.30,10
123.43,-3.63,0.45,28.87,0.00,233.47,79.00,13:27:18.203,8/28/14,1,1,4120.1157N, 8309.9687W,0.01,176.30,10
124.12,-4.25,0.14,33.60,-4.92,214.02,76.10,13:27:18.406,8/28/14,1,1,4120.1157N, 8309.9687W,0.02,176.30,10
124.80,-2.96,1.58,6.15,-16.74,227.33,74.36,13:27:18.609,8/28/14,1,1,4120.1157N, 8309.9687W,0.02,176.30,10
124.37,-3.31,0.92,39.28,14.77,240.64,74.36,13:27:18.609,8/28/14,1,1,4120.1157N, 8309.9687W,0.01,176.30,10
124.38,-4.51,0.37,16.56,5.91,236.54,74.36,13:27:18.796,8/28/14,1,1,4120.1157N, 8309.9687W,0.01,176.30,10
124.40,-3.98,0.74,9.94,-0.98,232.45,74.36,13:27:18.796,8/28/14,1,1,4120.1157N, 8309.9687W,0.01,176.30,10
124.54,-2.95,0.61,-6.15,1.97,224.26,74.36,13:27:19.0,8/28/14,1,1,4120.1157N, 8309.9687W,0.01,176.30,10
124.76,-5.39,0.60,16.56,-22.65,220.16,74.36,13:27:19.203,8/28/14,1,1,4120.1157N, 8309.9687W,0.01,176.30,10
125.15,-5.22,1.15,23.19,5.91,230.40,79.58,13:27:19.203,8/28/14,1,1,4120.1157N, 8309.9687W,0.01,176.30,10
125.23,-5.06,0.68,12.78,1.97,236.54,77.26,13:27:19.406,8/28/14,1,1,4120.1157N, 8309.9687W,0.01,176.30,10
125.02,-3.73,0.56,7.10,2.95,231.42,74.94,13:27:19.609,8/28/14,1,1,4120.1157N, 8309.9687W,0.01,176.30,10
124.79,-3.51,0.62,19.40,3.94,234.50,74.36,13:27:19.609,8/28/14,1,1,4120.1157N, 8309.9687W,0.01,176.30,10
124.65,-4.13,0.36,18.45,0.98,231.42,74.36,13:27:19.796,8/28/14,1,1,4120.1157N, 8309.9687W,0.01,176.30,10
124.60,-3.70,0.46,11.83,0.98,232.45,74.36,13:27:19.796,8/28/14,1,1,4120.1157N, 8309.9687W,0.01,176.30,10
124.81,-2.90,0.54,0.47,0.00,229.38,74.36,13:27:20.0,8/28/14,1,1,4120.1157N, 8309.9687W,0.01,176.30,10
125.06,-4.92,0.58,34.54,-20.68,225.28,74.36,13:27:20.203,8/28/14,1,1,4120.1157N, 8309.9687W,0.01,176.30,10
125.10,-5.26,0.38,42.11,17.72,234.50,79.00,13:27:20.203,8/28/14,1,1,4120.1157N, 8309.9687W,0.01,176.30,10
125.28,-5.09,0.35,20.35,1.97,237.57,77.26,13:27:20.406,8/28/14,1,1,4120.1157N, 8309.9687W,0.01,176.30,10
124.84,-5.28,0.09,8.04,0.98,232.45,74.36,13:27:20.406,8/28/14,1,1,4120.1157N, 8309.9687W,0.01,176.30,10
124.85,-5.79,0.06,24.13,-4.92,227.33,74.94,13:27:20.609,8/28/14,1,1,4120.1157N, 8309.9687W,0.01,176.30,10
124.43,-4.98,0.44,14.67,12.80,223.23,74.36,13:27:20.796,8/28/14,1,1,4120.1157N, 8309.9687W,0.01,176.30,10
124.54,-4.53,0.58,34.54,-5.91,233.47,72.04,13:27:20.796,8/28/14,1,1,4120.1157N, 8309.9687W,0.00,176.30,10
124.41,-4.29,0.02,12.78,10.83,237.57,74.36,13:27:21.0,8/28/14,1,1,4120.1157N, 8309.9687W,0.00,176.30,10
124.54,-3.71,0.28,-3.31,0.98,233.47,74.36,13:27:21.203,8/28/14,1,1,4120.1157N, 8309.9687W,0.01,176.30,10
124.73,-5.16,-0.19,36.44,-12.80,230.40,76.10,13:27:21.203,8/28/14,1,1,4120.1157N, 8309.9687W,0.01,176.30,10
126.61,-5.73,0.01,21.29,17.72,238.59,78.42,13:27:21.406,8/28/14,1,1,4120.1157N, 8309.9687W,0.01,176.30,10
